"CAJERO"|"GCC"|"ENTIDAD"|"OFICINA"|"NOMBRE_CALLE"|"NUMERO"|"COD_POSTAL"|"POBLACION"|"PROVINCIA"|"latitud"|"longitud"|"LIBRETA"|"INGRESO"|"RECIBOS"|"CONTACTLESS"|"TRANS"|"EXTRAER"|"CON_SALDO"|"COSTE_EXTRACCION"|"EXCEPCIONES"
"00001"|1|"3058"|100|"Av. Almanzora"|21|"04860"|"Olula del Río"|"ALMERÍA"|37.355326|-2.295778|1|0|0|0|0|1|1|0|0
"00005"|1|"3058"|255|"C/ Mayor"|176|"30360"|"Alcantarilla"|"MURCIA"|37.967666|-1.2174262|1|0|0|0|0|1|1|0|0
"00021"|1|"3058"|126|"Av. Mediterráneo (Rambla Campos)"|0|"04638"|"Mojácar"|"ALMERÍA"|37.134388|-1.830275|1|0|1|1|1|1|1|0|0
"00022"|1|"3058"|65|"C/ Murcia"|86|"04004"|"Almería"|"ALMERÍA"|36.8439815|-2.4583315|1|0|0|0|0|1|1|0|0
"00024"|1|"3058"|125|"C/ Del Mar"|33|"04620"|"Vera"|"ALMERÍA"|37.247548|-1.86641|1|0|1|1|1|1|1|0|0
"00041"|1|"3058"|269|"C/ Mayor"|126|"30158"|"Los Garres"|"MURCIA"|37.958322|-1.091126|0|0|0|0|0|1|1|0|0
"00042"|1|"3058"|296|"C/ Alonso de Ojeda"|4|"30007"|"Murcia"|"MURCIA"|37.99262|-1.122075|1|0|1|1|1|1|1|0|0
"00045"|1|"3058"|18|"C/ Real"|21|"04880"|"Tíjola"|"ALMERÍA"|37.345103|-2.4401935|1|0|1|1|1|1|1|0|0
"00046"|1|"3058"|297|"C/ Mayor"|51|"30579"|"Torreagüera"|"MURCIA"|37.983058|-1.05289|1|0|1|1|1|1|1|0|0
"00050"|1|"3058"|302|"Gran Vía"|85|"30530"|"Cieza"|"MURCIA"|38.239989|-1.419543|1|0|1|1|1|1|1|0|0
"00051"|1|"3058"|249|"C/ Maestro Puig Valera"|63|"30140"|"Santomera"|"MURCIA"|38.059703|-1.048466|1|0|0|1|1|1|1|0|0
"00052"|1|"3058"|254|"C/ Mayor"|65|"30360"|"La Unión"|"MURCIA"|37.61735|-0.87734|1|0|0|0|0|1|1|0|0
"00053"|1|"3058"|129|"C/Orquídea,esq. Pl.Campillo del Moro"|0|"04720"|"Aguadulce"|"ALMERÍA"|36.80916|-2.58067|1|0|1|1|1|1|1|0|0
"00054"|1|"3058"|227|"Av. Filipinas"|63|"30366"|"El Algar"|"MURCIA"|37.646571|-0.868167|1|0|1|1|1|1|1|0|0
"00055"|1|"3058"|303|"Av. de Los Antones"|68|"04640"|"Pulpí"|"ALMERÍA"|37.40263|-1.7512713|1|0|0|0|1|1|1|0|0
"00057"|1|"3058"|308|"C/ Cartagena"|18|"30002"|"Murcia"|"MURCIA"|37.980511|-1.131624|0|0|0|0|0|1|1|0|0
"00059"|1|"3058"|148|"Pasaje del Puerto"|10|"04700"|"El Ejido"|"ALMERÍA"|36.695797|-2.787738|1|0|1|1|1|1|1|0|0
"00061"|1|"3058"|17|"Pl. Cura Valera"|14|"04600"|"Huércal Overa"|"ALMERÍA"|37.389539|-1.9431077|1|0|1|1|1|1|1|0|0
"00062"|1|"3058"|311|"C/ Reina Victoria"|15|"30204"|"Cartagena"|"MURCIA"|37.609863|-0.990422|1|0|1|1|1|1|1|0|0
"00063"|1|"3058"|316|"C/ Mayor"|20|"30820"|"Alcantarilla"|"MURCIA"|37.9727573|-1.2084574|1|0|1|1|1|1|1|0|0
"00067"|1|"3058"|327|"C/ Saavedra Fajardo,esq.C/San Lorenzo"|0|"30001"|"Murcia"|"MURCIA"|37.9861807|-1.1272079|1|0|1|1|1|1|1|0|0
"00069"|1|"3058"|319|"C/ Dr. Fleming"|28|"30110"|"Churra"|"MURCIA"|38.021937|-1.1357331|1|0|1|1|1|1|1|0|0
"00070"|1|"3058"|246|"C/ Menéndez Pelayo,esq.C/Juan Cierva"|0|"30565"|"Las Torres de Cotillas"|"MURCIA"|38.024599|-1.244486|1|0|1|1|1|1|1|0|0
"00071"|1|"3058"|299|"C/ Juan Fernández"|18|"30204"|"Cartagena"|"MURCIA"|37.6075742|-0.9874895|1|0|1|1|1|1|1|0|0
"00073"|1|"3058"|147|"Polígono Industrial La Redonda,calle 13"|29|"04700"|"El Ejido"|"ALMERÍA"|36.784421|-2.7495369|1|0|1|1|1|1|1|0|0
"00076"|1|"3058"|163|"C/Madrid,esq.C/Hermanos Lirola"|0|"04700"|"El Ejido"|"ALMERÍA"|36.772222|-2.8119137|1|0|0|1|1|1|1|0|0
"00077"|1|"3058"|185|"C/ Venta Gaspar"|2|"04120"|"La Cañada"|"ALMERÍA"|36.868128|-2.386136|1|0|1|1|1|1|1|0|0
"00078"|1|"3058"|145|"Ctra. de Torrecárdenas"|50|"04230"|"Huércal de Almería"|"ALMERÍA"|36.870137|-2.439523|1|0|0|0|0|1|1|0|0
"00079"|1|"3058"|146|"C/ Esmeralda"|1|"04230"|"Huércal de Almería"|"ALMERÍA"|36.887481|-2.444973|0|0|0|0|1|1|1|0|0
"00081"|1|"3058"|305|"Av. Juan Carlos I"|70|"30800"|"Lorca"|"MURCIA"|37.676374|-1.694738|1|0|1|0|1|1|1|0|0
"00083"|1|"3058"|544|"C/ Sol i Padris"|95|"08203"|"Sabadell"|"BARCELONA"|41.5368095|2.11923875|0|0|0|0|0|1|1|0|0
"00086"|1|"3058"|199|"Avda. del Mediterráneo"|0|"04009"|"Almería"|"ALMERÍA"|36.85442|-2.44682|0|0|0|0|0|1|1|0|0
"00087"|1|"3058"|199|"Avda. del Mediterráneo"|0|"04009"|"Almería"|"ALMERÍA"|36.85442|-2.44682|0|0|0|0|0|1|1|0|0
"00088"|1|"3058"|158|"Puerta Purchena"|10|"04004"|"Almería"|"ALMERÍA"|36.841733|-2.464025|1|0|1|1|1|1|1|0|0
"00089"|1|"3058"|332|"C/ Mayor"|48|"30100"|"Espinardo"|"MURCIA"|38.009081|-1.152344|1|0|1|1|1|1|1|0|0
"00090"|1|"3058"|351|"C/ Príncipe Felipe"|4|"30830"|"La Ñora"|"MURCIA"|37.990016|-1.196115|1|0|1|1|1|1|1|0|0
"00092"|1|"3058"|13|"Av. José Barrionuevo Peña"|17|"04760"|"Berja"|"ALMERÍA"|36.841705|-2.94543|1|0|1|1|1|1|1|0|0
"00094"|1|"3058"|8|"C/ Iglesia"|4|"04750"|"Dalías"|"ALMERÍA"|36.820418|-2.870783|1|0|1|1|1|1|1|0|0
"00098"|1|"3058"|538|"C/ Pintor Murillo"|58|"08210"|"Barberá del Vallés"|"BARCELONA"|41.517389|2.1234778|1|0|0|1|1|1|1|0|0
"00100"|1|"3058"|331|"C/ De la Iglesia,esq.C/Dr.José Gil"|0|"30152"|"Aljucer"|"MURCIA"|37.956515|-1.153554|1|1|0|1|1|1|1|0|0
"00101"|1|"3058"|273|"C/ Saavedra Fajardo"|20|"30157"|"Algezares"|"MURCIA"|37.944278|-1.11314|1|0|0|0|1|1|1|0|0
"00102"|1|"3058"|223|"Av. Torrepacheco"|12|"30709"|"Roldán"|"MURCIA"|37.796815|-1.006891|1|0|1|1|1|1|1|0|0
"00106"|1|"3058"|371|"Av. España"|0|"30383"|"Los Nietos"|"MURCIA"|37.652245|-0.791424|1|0|1|1|1|1|1|0|0
"00109"|1|"3058"|159|"Av. Cabo de Gata"|177|"04007"|"Almería"|"ALMERÍA"|36.8252802|-2.4474744|1|0|1|1|1|1|1|0|0
"00110"|1|"3058"|212|"C/ Torre Pacheco"|9|"30708"|"El Jimenado"|"MURCIA"|37.759197|-1.034807|1|0|1|1|1|1|1|0|0
"00111"|1|"3058"|175|"Av. Carlos III"|531|"04720"|"Aguadulce"|"ALMERÍA"|36.815409|-2.5692343|1|0|0|1|1|1|1|0|0
"00113"|1|"3058"|323|"C/ Iberia"|14|"30880"|"Águilas"|"MURCIA"|37.402704|-1.5903749|1|1|0|1|1|1|1|0|0
"00115"|1|"3058"|299|"Av. Pío XII"|1|"30012"|"Murcia"|"MURCIA"|37.971789|-1.1221665|1|0|1|1|1|1|1|0|0
"00116"|1|"3058"|290|"C/ Carmen"|30|"30110"|"Cabezo de Torres"|"MURCIA"|38.025295|-1.125083|1|0|1|1|1|1|1|0|0
"00117"|1|"3058"|349|"C/ Peroniño"|15|"30205"|"Cartagena"|"MURCIA"|37.604677|-0.9962672|1|0|0|0|0|1|1|0|0
"00118"|1|"3058"|199|"Ctra. de Níjar, Km."|14|"04131"|"El Alquián"|"ALMERÍA"|36.851763|-2.31108|0|0|0|1|1|1|1|0|0
"00120"|1|"3058"|354|"C/ Mayor"|65|"30006"|"Puente Tocinos"|"MURCIA"|37.992867|-1.103961|1|0|1|1|1|1|1|0|0
"00121"|1|"3058"|199|"Ctra. Almerimar. C.C. Copo"|15|"04700"|"El Ejido"|"ALMERÍA"|36.752386|-2.806205|0|0|0|1|1|1|1|0|0
"00123"|1|"3058"|361|"C/ Marqués de los Vélez"|36|"30008"|"Murcia"|"MURCIA"|37.996804|-1.1310941|1|0|1|1|1|1|1|0|0
"00127"|1|"3058"|360|"C/ Mayor"|15|"30011"|"Murcia"|"MURCIA"|37.978811|-1.105832|0|0|0|0|0|1|1|0|0
"00141"|1|"3058"|62|"Paseo del Huerto"|9|"04628"|"Antas"|"ALMERÍA"|37.244892|-1.91882|1|0|1|1|1|1|1|0|0
"00146"|1|"3058"|9|"Pl. Constitución"|1|"04760"|"Berja"|"ALMERÍA"|36.846238|-2.949539|0|0|0|0|0|1|1|0|0
"00183"|1|"3058"|257|"Av. de Madrid"|76|"30500"|"Molina de Segura"|"MURCIA"|38.059202|-1.217137|1|0|0|0|0|1|1|0|0
"00186"|1|"3058"|83|"Av. del Puerto"|7|"04740"|"Roquetas de Mar"|"ALMERÍA"|36.7573282|-2.6085515|1|0|1|1|1|1|1|0|0
"00200"|1|"3058"|199|"Av. Mediterráneo - Carrefour"|256|"04006"|"Almería"|"ALMERÍA"|36.841603|-2.444182|0|0|0|0|0|1|1|0|0
"00203"|1|"3058"|199|"Av. Mediterráneo, Esq. Av. Gaviotas"|0|"04740"|"Las Marinas"|"ALMERÍA"|36.732111|-2.618022|1|0|0|0|1|1|1|0|0
"00217"|1|"3058"|117|"C/ San Isidro"|125|"04700"|"El Ejido"|"ALMERÍA"|36.7782541|-2.8179057|1|0|0|0|1|1|1|0|0
"00223"|1|"3058"|92|"Av. Pablo Iglesias,esq.C/San Diego"|0|"04003"|"Almería"|"ALMERÍA"|36.845489|-2.464529|1|0|1|1|1|1|1|0|0
"00233"|1|"3058"|90|"Pl. Párroco José Jiménez"|7|"04700"|"El Ejido"|"ALMERÍA"|36.77494963|-2.8146526|1|0|0|0|1|1|1|0|0
"00234"|1|"3058"|256|"C/ Paseo"|7|"30530"|"Cieza"|"MURCIA"|38.238433|-1.420691|1|0|1|1|1|1|1|0|0
"00267"|1|"3058"|202|"C/ Juan Carlos I"|0|"30840"|"Alhama de Murcia"|"MURCIA"|37.848716|-1.425699|1|0|0|0|0|1|1|0|0
"00276"|1|"3058"|79|"Av. Madrid"|21|"04007"|"Almería"|"ALMERÍA"|36.832743|-2.4492487|1|0|1|1|1|1|1|0|0
"00287"|1|"3058"|201|"C/ Príncipe Alfonso,esq.C/Alporchones"|0|"30800"|"Lorca"|"MURCIA"|37.673705|-1.6987074|1|0|1|1|1|1|1|0|0
"00291"|1|"3058"|66|"Av. Cabo de Gata"|137|"04007"|"Almería"|"ALMERÍA"|36.827399|-2.450069|1|0|1|1|1|1|1|0|0
"00294"|1|"3058"|73|"Ctra. Níjar"|299|"04009"|"Almería"|"ALMERÍA"|36.845898|-2.4401363|1|0|0|0|0|1|1|0|0
"00301"|1|"3058"|77|"Loma La Mezquita"|69|"04700"|"El Ejido"|"ALMERÍA"|36.768585|-2.8208195|1|0|1|1|1|1|1|0|0
"00311"|1|"3058"|200|"Pl. Circular"|17|"30008"|"Murcia"|"MURCIA"|37.992378|-1.1293049|1|0|1|1|1|1|1|0|0
"00315"|1|"3058"|299|"C/ Del Pino"|5|"30870"|"Mazarrón"|"MURCIA"|37.598796|-1.314304|1|0|0|0|1|1|1|0|0
"00325"|1|"3058"|199|"Av. Cabo de Gata"|70|"04007"|"Almería"|"ALMERÍA"|36.8309697|-2.4555413|1|0|0|0|0|1|1|0|0
"00338"|1|"3058"|86|"C/ Calzada de Castro"|50|"04006"|"Almería"|"ALMERÍA"|36.838124|-2.451153|1|0|1|1|1|1|1|0|0
"00356"|1|"3058"|199|"Av. Ntra. Sra. de Montserrat"|11|"04006"|"Almería"|"ALMERÍA"|36.8368548|-2.4552416|1|0|0|1|1|1|1|0|0
"00357"|1|"3058"|248|"Av. Gutiérrez Mellado"|10|"30500"|"Molina de Segura"|"MURCIA"|38.05735|-1.210009|1|0|1|1|1|1|1|0|0
"00373"|1|"3058"|199|"Los Partidores"|0|"04120"|"La Cañada"|"ALMERÍA"|36.841192|-2.424898|0|0|0|0|0|1|1|0|0
"00375"|1|"3058"|35|"Bv. Sta María del Águila,esq. C/Valencia"|0|"04710"|"Santa María del Águila"|"ALMERÍA"|36.779884|-2.77498|1|0|0|0|0|1|1|0|0
"00387"|1|"3058"|97|"C/ Puerto Rico"|2|"04700"|"Santo Domingo"|"ALMERÍA"|36.767923|-2.8016492|1|0|1|1|1|1|1|0|0
"00391"|1|"3058"|98|"C/ Artés de Arcos"|15|"04004"|"Almería"|"ALMERÍA"|36.835473|-2.4587728|1|0|0|0|1|1|1|0|0
"00401"|1|"3058"|119|"C/ Hospital"|18|"04002"|"Almería"|"ALMERÍA"|36.8374219|-2.4689872|1|0|0|0|1|1|1|0|0
"00416"|1|"3058"|199|"Ctra. Almerimar. C.C. Copo"|15|"04700"|"El Ejido"|"ALMERÍA"|36.752386|-2.806205|0|0|0|0|0|1|1|0|0
"00417"|1|"3058"|0|"Paseo de Almería"|75|"04001"|"Almería"|"ALMERÍA"|36.836023|-2.4627615|1|0|0|0|1|1|1|0|0
"00418"|1|"3058"|0|"Paseo de Almería"|75|"04001"|"Almería"|"ALMERÍA"|36.8360237|-2.4627615|1|0|0|1|0|1|1|0|0
"00426"|1|"3058"|130|"Ctra. Sacramento"|0|"04120"|"Almería"|"ALMERÍA"|36.8289006|-2.4038939|1|0|1|0|1|1|1|0|0
"00427"|1|"3058"|130|"Ctra. Sacramento"|0|"04120"|"Almería"|"ALMERÍA"|36.8289006|-2.4038939|1|0|0|1|1|1|1|0|0
"00434"|1|"3058"|76|"Ctra. Granada"|187|"04008"|"Almería"|"ALMERÍA"|36.847609|-2.457519|1|0|1|1|1|1|1|0|0
"00447"|1|"3058"|1|"C/ Natalio Rivas"|19|"04770"|"Adra"|"ALMERÍA"|36.748891|-3.014824|1|0|1|1|1|1|1|0|0
"00460"|1|"3058"|40|"Pl. Constitución"|15|"04740"|"Roquetas de Mar"|"ALMERÍA"|36.764647|-2.61481|1|0|1|1|1|1|1|0|0
"00474"|1|"3058"|210|"C/ Fernando Magallanes"|8|"30594"|"Pozo Estrecho"|"MURCIA"|37.712488|-0.993319|1|0|1|1|1|1|1|0|0
"00485"|1|"3058"|294|"C/ O Shea"|4|"30720"|"Santiago de la Ribera"|"MURCIA"|37.797566|-0.804866|1|0|1|1|1|1|1|0|0
"00495"|1|"3058"|98|"Artés de Arcos"|15|"04004"|"Almería"|"ALMERÍA"|36.835473|-2.4587728|1|0|1|1|1|1|1|0|0
"00518"|1|"3058"|208|"Pl. La Iglesia"|4|"30390"|"La Aljorra"|"MURCIA"|37.690782|-1.071017|1|0|0|0|1|1|1|0|0
"00543"|1|"3058"|121|"Av. Mediterráneo"|250|"04006"|"Almería"|"ALMERÍA"|36.843028|-2.4470999|1|0|1|1|1|1|1|0|0
"00551"|1|"3058"|41|"C/ La Loma"|1|"04712"|"Balerma"|"ALMERÍA"|36.731345|-2.88812|1|0|0|0|1|1|1|0|0
"00564"|1|"3058"|237|"Pl. de la Farola,esq.C/Federico Servet"|0|"30540"|"Blanca"|"MURCIA"|38.179564|-1.376756|0|0|0|0|0|1|1|0|0
"00565"|1|"3058"|301|"Complejo Comercial Las Dunas"|32|"30370"|"Cabo de Palos"|"MURCIA"|37.631618|-0.705121|1|0|1|1|1|1|1|0|0
"00568"|1|"3058"|127|"Paseo de Almería"|25|"04001"|"Almería"|"ALMERÍA"|36.8394701|-2.4633878|1|0|1|1|1|1|1|0|0
"00573"|1|"3058"|299|"C/ Mayor"|20|"30201"|"Cartagena"|"MURCIA"|37.5994072|-0.9857841|1|0|0|0|1|1|1|0|0
"00596"|1|"3058"|36|"Pl. Castillo"|16|"04140"|"Carboneras"|"ALMERÍA"|36.997009|-1.894391|1|0|1|1|1|1|1|0|0
"00597"|1|"3058"|33|"C/ Javier Verdejo"|22|"04009"|"Almería"|"ALMERÍA"|36.849144|-2.4499609|1|0|0|0|0|1|1|0|0
"00634"|1|"3058"|44|"Pl. Constitución"|2|"04230"|"Huércal de Almería"|"ALMERÍA"|36.884435|-2.435961|1|0|0|0|1|1|1|0|0
"00637"|1|"3058"|87|"Av. Boulevard Ciudad de Vícar"|1393|"04738"|"La Puebla de Vícar"|"ALMERÍA"|36.800568|-2.647845|1|0|1|1|1|1|1|0|0
"00643"|1|"3058"|232|"C/ General Valcárcel"|3|"30170"|"Mula"|"MURCIA"|38.03969|-1.488851|1|0|0|0|0|1|1|0|0
"00654"|1|"3058"|54|"C/ Mayor"|122|"04630"|"Garrucha"|"ALMERÍA"|37.18092|-1.82208|1|0|1|1|1|1|1|0|0
"00655"|1|"3058"|199|"Av. Pablo Picasso"|48|"04740"|"Roquetas de Mar"|"ALMERÍA"|36.7628055|-2.6184842|0|0|0|0|1|1|1|0|0
"00665"|1|"3058"|218|"Ctra. Lorca"|0|"30835"|"Sangonera la Seca"|"MURCIA"|37.960906|-1.227658|1|0|0|0|0|1|1|0|0
"00680"|1|"3058"|38|"Ctra. Alicún"|379|"04740"|"El Parador"|"ALMERÍA"|36.807627|-2.598073|1|0|1|1|1|1|1|0|0
"00705"|1|"3058"|230|"Gran Via"|11|"30430"|"Cehegín"|"MURCIA"|38.089728|-1.79573|1|0|1|1|1|1|1|0|0
"00720"|1|"3058"|199|"Hospital Torrecárdenas"|0|"04009"|"Almería"|"ALMERÍA"|36.86295|-2.44088|0|0|0|0|0|1|1|0|0
"00732"|1|"3058"|112|"Av. Juan Carlos I"|9|"04740"|"Roquetas de Mar"|"ALMERÍA"|36.7653843|-2.6131156|1|0|0|0|1|1|1|0|0
"00737"|1|"3058"|206|"Av. Tierno Galván"|1|"30860"|"Puerto Mazarron"|"MURCIA"|37.565365|-1.260907|1|0|0|0|0|1|1|0|0
"00752"|1|"3058"|50|"Boulevard Ciudad de Vícar"|960|"04738"|"Vícar"|"ALMERÍA"|36.8034|-2.631966|1|0|0|0|0|1|1|0|0
"00758"|1|"3058"|123|"C/ Natalio Rivas"|87|"04770"|"Adra"|"ALMERÍA"|36.748112|-3.018744|1|0|0|0|0|1|1|0|0
"00764"|1|"3058"|52|"Ctra. Níjar"|93|"04130"|"El Alquián"|"ALMERÍA"|36.852891|-2.355516|1|0|1|1|1|1|1|0|0
"00765"|1|"3058"|127|"Paseo de Almería"|25|"04001"|"Almería"|"ALMERÍA"|36.8394701|-2.4633878|1|0|1|1|1|1|1|0|0
"00773"|1|"3058"|501|"Av. Matadepera"|54|"08207"|"Sabadell"|"BARCELONA"|41.5655075|2.08978962|0|0|0|0|0|1|1|0|0
"00782"|1|"3058"|250|"Pl. Nuestra Señora de la Oliva"|9|"30580"|"Alquerías"|"MURCIA"|38.015942|-1.036937|1|0|1|1|1|1|1|0|0
"00783"|1|"3058"|500|"C/ Periodista Grané"|176|"08226"|"Terrassa"|"BARCELONA"|41.574217|2.027203|1|0|1|1|1|1|1|0|0
"00792"|1|"3058"|204|"C/ Mably"|0|"30890"|"Puerto Lumbreras"|"MURCIA"|37.561674|-1.809247|1|0|1|1|1|1|1|0|0
"00797"|1|"3058"|295|"Pl. Fuensanta"|0|"30005"|"Murcia"|"MURCIA"|37.989153|-1.132622|1|0|0|0|1|1|1|0|0
"00798"|1|"3058"|7|"Ctra. Málaga"|270|"04700"|"El Ejido"|"ALMERÍA"|36.77301|-2.815289|1|0|1|1|1|1|1|0|0
"00800"|1|"3058"|7|"Ctra. Málaga"|270|"04700"|"El Ejido"|"ALMERÍA"|36.773001|-2.815289|1|1|0|1|1|1|1|0|0
"00808"|1|"3058"|238|"C/ Mayor"|65|"30833"|"Sangonera La Verde"|"MURCIA"|37.932419|-1.208917|1|0|1|1|1|1|1|0|0
"00815"|1|"3058"|21|"Pl. Decididos"|8|"04400"|"Alhama de Almería"|"ALMERÍA"|36.957793|-2.569848|1|0|1|1|1|1|1|0|0
"00840"|1|"3058"|15|"Av. Europa"|124|"04745"|"La Mojonera"|"ALMERÍA"|36.75392|-2.685975|1|0|0|0|0|1|1|0|0
"00847"|1|"3058"|57|"Crta. de la Mojonera"|154|"04716"|"Las Norias de Daza"|"ALMERÍA"|36.759319|-2.753055|1|0|0|0|1|1|1|0|0
"00858"|1|"3058"|67|"Av. Constitución, esq.C/Jardín"|144|"04117"|"San Isidro"|"ALMERÍA"|36.908615|-2.17364|1|0|0|0|1|1|1|0|0
"00859"|1|"3058"|67|"Av. Constitución esq,C/Jardin"|144|"04117"|"San Isidro"|"ALMERÍA"|36.90861|-2.17364|1|0|1|1|1|1|1|0|0
"00864"|1|"3058"|2|"Av. Pío XII"|4|"04800"|"Albox"|"ALMERÍA"|37.387805|-2.145894|1|0|0|0|1|1|1|0|0
"00889"|1|"3058"|24|"C/ Mayor"|5|"04620"|"Vera"|"ALMERÍA"|37.247445|-1.868995|1|0|1|1|1|1|1|0|0
"00893"|1|"3058"|6|"Av. Andalucía"|70|"04640"|"Pulpí"|"ALMERÍA"|37.411775|-1.7449951|1|0|0|0|0|1|1|0|0
"00899"|1|"3058"|25|"C/ Juan Aliaga"|1|"04838"|"María"|"ALMERÍA"|37.711554|-2.165369|0|0|0|0|0|1|1|0|0
"00900"|1|"3058"|524|"Pl. Tetuán"|23|"08009"|"Barcelona"|"BARCELONA"|41.395854|2.174606|1|0|1|1|1|1|1|0|0
"00903"|1|"3058"|215|"Ctra. Lorca"|1|"30880"|"Águilas"|"MURCIA"|37.4084742|-1.5867189|1|0|1|1|1|1|1|0|0
"00916"|1|"3058"|226|"C/ Mayor"|23|"30600"|"Archena"|"MURCIA"|38.114777|-1.299014|1|0|0|1|1|1|1|0|0
"00920"|1|"3058"|531|"Rambla Sant Sebastiá"|36|"08921"|"Santa Coloma de Gramenet"|"BARCELONA"|41.4506269|2.2114844|0|0|0|0|0|1|1|0|0
"00923"|1|"3058"|270|"Pl. de España"|8|"30740"|"San Pedro del Pinatar"|"MURCIA"|37.834502|-0.791829|1|0|1|1|1|1|1|0|0
"00924"|1|"3058"|12|"Camino de Vera"|2|"04110"|"Campohermoso"|"ALMERÍA"|36.93807|-2.131509|1|0|1|1|1|1|1|0|0
"00938"|1|"3058"|265|"C/ Monteazahar"|4|"30570"|"Beniaján"|"MURCIA"|37.973525|-1.0706734|1|0|1|1|1|1|1|0|0
"00942"|1|"3058"|207|"C/ Pino de la Murta"|0|"30180"|"Bullas"|"MURCIA"|38.049761|-1.669163|1|0|0|0|1|1|1|0|0
"00948"|1|"3058"|220|"C/ Alfonso XIII,esq.C/Tirso de Molina"|0|"30203"|"Cartagena"|"MURCIA"|37.6067814|-0.9764436|1|0|1|1|1|1|1|0|0
"00951"|1|"3058"|234|"C/ Méjico"|4|"30310"|"Cartagena"|"MURCIA"|37.6365983|-1.0101078|1|0|0|1|1|1|1|0|0
"00954"|1|"3058"|299|"C/ Brunete"|0|"30300"|"Cartagena"|"MURCIA"|37.626927|-0.983748|0|0|0|0|0|1|1|0|0
"00957"|1|"3058"|239|"Av. Párroco Antonio López Martínez"|6|"30730"|"San Javier"|"MURCIA"|37.806563|-0.835379|1|0|1|1|1|1|1|0|0
"00962"|1|"3058"|205|"C/ General Aznar"|4|"30850"|"Totana"|"MURCIA"|37.769422|-1.502304|1|0|1|1|1|1|1|0|0
"00967"|1|"3058"|231|"Paseo de la Parra"|14|"30880"|"Águilas"|"MURCIA"|37.406667|-1.577407|1|0|1|1|1|1|1|0|0
"00971"|1|"3058"|61|"Ctra. de Níjar"|205|"04120"|"La Cañada"|"ALMERÍA"|36.8403833|-2.4071357|1|0|0|0|1|1|1|0|0
"00990"|1|"3058"|295|"Pl. Fuensanta"|0|"30005"|"Murcia"|"MURCIA"|37.989153|-1.132622|1|0|1|1|1|1|1|0|0
"00993"|1|"3058"|94|"C/ Poeta Paco Aquino,esq.Ctra.Ronda"|0|"04005"|"Almería"|"ALMERÍA"|36.839674|-2.454506|1|0|0|0|1|1|1|0|0
"01001"|1|"3058"|199|"C/ Trajano"|24|"04001"|"Almería"|"ALMERÍA"|36.838049|-2.464951|1|0|0|1|1|1|1|0|0
"01003"|1|"3058"|299|"C/ Del Carmen"|7|"30168"|"Era Alta"|"MURCIA"|37.9658541|-1.1682146|1|0|0|0|0|1|1|0|0
"01004"|1|"3058"|425|"Av. Calvo Sotelo, esq.C/Río Segura"|0|"30130"|"Beniel"|"MURCIA"|38.045201|-1.002631|1|0|1|1|1|1|1|0|0
"01005"|1|"3058"|426|"Av. de la Libertad,esq.C/Luisos"|0|"30710"|"Los Alcázares"|"MURCIA"|37.739068|-0.852309|1|0|1|1|1|1|1|0|0
"01009"|1|"3058"|1907|"C/ Alcalá"|254|"28027"|"Madrid"|"MADRID"|40.432164|-3.654886|1|0|1|1|1|1|1|0|0
"01011"|1|"3058"|769|"C/ Las Pizarras"|40|"29712"|"Viñuela"|"MÁLAGA"|36.866283|-4.143348|1|0|1|1|1|1|1|0|0
"01015"|1|"3058"|1601|"Av. Gran Vía Jaume I"|40|"17001"|"Girona"|"GIRONA"|41.983549|2.8197991|1|0|0|1|1|1|1|0|0
"01017"|1|"3058"|1910|"C/ Libertad"|17|"28100"|"Alcobendas"|"MADRID"|40.540401|-3.634543|1|1|0|1|1|1|1|0|0
"01018"|1|"3058"|1911|"C/ Camilo José Cela"|4|"28230"|"Las Rozas"|"MADRID"|40.51804|-3.897507|1|0|0|0|0|1|1|0|0
"01019"|1|"3058"|1912|"Av. Monforte de Lemos"|107|"28029"|"Madrid"|"MADRID"|40.4788218|-3.7063565|0|0|0|0|0|1|1|0|0
"01020"|1|"3058"|1913|"Pl. del Paraíso"|1|"28340"|"Valdemoro"|"MADRID"|40.19182171|-3.67672923|0|0|0|0|0|1|1|0|0
"01021"|1|"3058"|1914|"Av. Constitución"|2|"28830"|"San Fernando de Henares"|"MADRID"|40.4260438|-3.5335026|1|0|1|1|1|1|1|0|0
"01022"|1|"3058"|1915|"C/ Alcalá"|24|"28014"|"Madrid"|"MADRID"|40.418021|-3.698745|0|0|0|0|0|1|1|0|0
"01023"|1|"3058"|1916|"C/ Arturo Soria"|191|"28043"|"Madrid"|"MADRID"|40.459332|-3.6595767|0|0|0|0|0|1|1|0|0
"01024"|1|"3058"|2901|"C/ Cervantes"|30|"40001"|"Segovia"|"SEGOVIA"|40.9477731|-4.1185761|0|0|0|0|0|1|1|0|0
"01025"|1|"3058"|1801|"Av. Ana de Viya esq. C/ Brasil 2"|0|"11009"|"Cádiz"|"CÁDIZ"|36.507998|-6.277931|1|0|0|0|1|1|1|0|0
"01027"|1|"3058"|572|"Camí Ral"|425|"08304"|"Mataró"|"BARCELONA"|41.53647|2.44384982|1|0|1|1|1|1|1|0|0
"01031"|1|"3058"|703|"C/ Santo Domingo"|2|"29750"|"Algarrobo"|"MÁLAGA"|36.773494|-4.039033|1|0|1|1|1|1|1|0|0
"01032"|1|"3058"|429|"Av. Francisco Salzillo"|22|"30169"|"San Ginés"|"MURCIA"|37.952319|-1.193787|0|0|0|0|1|1|1|0|0
"01035"|1|"3058"|427|"Gran Vía"|19|"30320"|"Fuente Álamo"|"MURCIA"|37.722574|-1.171017|1|0|1|1|1|1|1|0|0
"01038"|1|"3058"|1909|"Ps/ Delicias"|38|"28045"|"Madrid"|"MADRID"|40.4036073|-3.6939022|1|0|1|1|1|1|1|0|0
"01039"|1|"3058"|1908|"C/ Camarena"|106|"28047"|"Madrid"|"MADRID"|40.3928176|-3.755464|0|0|0|0|0|1|1|0|0
"01040"|1|"3058"|2001|"C/ Rodríguez Cepeda"|52|"46021"|"Valencia"|"VALENCIA"|39.467871|-0.350543|1|0|1|1|1|1|1|0|0
"01041"|1|"3058"|2003|"Carrer de Jesús"|31|"46007"|"Valencia"|"VALENCIA"|39.466514|-0.382762|1|0|1|1|1|1|1|0|0
"01043"|1|"3058"|2005|"Av. Constitución"|91|"46009"|"Valencia"|"VALENCIA"|39.4897142|-0.3756978|1|0|1|1|1|1|1|0|0
"01048"|1|"3058"|2506|"C/ Virgen del Pilar"|5|"03330"|"Crevillent"|"ALICANTE"|38.246128|-0.80857|1|0|0|0|0|1|1|0|0
"01049"|1|"3058"|1906|"Glta Ruiz Jiménez esq. C/ San Bernardo"|0|"28004"|"Madrid"|"MADRID"|40.42995|-3.705772|1|0|1|1|1|1|1|0|0
"01051"|1|"3058"|2503|"C/ Calderón de la Barca"|31|"03004"|"Alicante"|"ALICANTE"|38.3506381|-0.4855677|1|0|1|1|1|1|1|0|0
"01053"|1|"3058"|191|"C/ Sierra Cazorla"|0|"04240"|"Viator"|"ALMERÍA"|36.884538|-2.419578|0|0|0|0|1|1|1|0|0
"01054"|1|"3058"|409|"Av. Bruselas"|0|"30395"|"Cartagena"|"MURCIA"|37.626995|-0.963718|1|0|0|0|0|1|1|0|0
"01056"|1|"3058"|2007|"Gran Vía Marqués del Turia"|21|"46005"|"Valencia"|"VALENCIA"|39.465894|-0.3720607|1|0|1|1|1|1|1|0|0
"01058"|1|"3058"|199|"Ctra Alicún"|1|"04740"|"Roquetas de Mar"|"ALMERÍA"|36.767798|-2.614025|0|0|0|0|0|1|1|0|0
"01059"|1|"3058"|199|"Ctra. Alicún"|1|"04740"|"Roquetas de Mar"|"ALMERÍA"|36.767798|-2.614025|0|0|0|0|0|1|1|0|0
"01061"|1|"3058"|1802|"C/ Altamira"|0|"11310"|"Sotogrande"|"CÁDIZ"|36.293691|-5.298371|1|0|1|1|1|1|1|0|0
"01062"|1|"3058"|269|"Av. del Progreso"|86|"30012"|"Murcia"|"MURCIA"|37.9644261|-1.1204192|1|0|1|1|1|1|1|0|0
"01063"|1|"3058"|71|"C/ Sevilla"|1|"04410"|"Benahadux"|"ALMERÍA"|36.926327|-2.460144|0|0|0|0|1|1|1|0|0
"01065"|1|"3058"|235|"Av. José Alegría"|0|"30007"|"Zarandona"|"MURCIA"|38.005513|-1.115799|0|0|0|0|0|1|1|0|0
"01067"|1|"3058"|432|"C/ Juan Ortuño"|1|"30510"|"Yecla"|"MURCIA"|38.6133076|-1.1159062|0|0|0|0|0|1|1|0|0
"01068"|1|"3058"|199|"Ctra. De Níjar Km."|9|"04130"|"El Alquián"|"ALMERÍA"|36.847998|-2.372192|0|0|0|0|0|1|1|0|0
"01069"|1|"3058"|236|"Av. Miguel de Cervantes"|9|"30009"|"Murcia"|"MURCIA"|37.994835|-1.142149|1|0|1|1|1|1|1|0|0
"01070"|1|"3058"|2008|"Paseo de Germanías"|60|"46700"|"Gandía"|"VALENCIA"|38.966073|-0.185573|1|0|1|1|1|1|1|0|0
"01071"|1|"3058"|2508|"Av. del País Valenciá"|23|"03201"|"Elche"|"ALICANTE"|38.2675534|-0.7005973|1|0|1|1|1|1|1|0|0
"01072"|1|"3058"|2509|"Av. Libertad"|49|"03690"|"Sant Vicent del Raspeig"|"ALICANTE"|38.397977|-0.521333|1|0|1|1|1|1|1|0|0
"01073"|1|"3058"|243|"Ronda de Garay"|10|"30003"|"Murcia"|"MURCIA"|37.984251|-1.1226457|1|0|1|1|1|1|1|0|0
"01074"|1|"3058"|539|"C/ Dr. Reig"|34|"08840"|"Viladecans"|"BARCELONA"|41.318064|2.014751|1|0|0|0|0|1|1|0|0
"01075"|1|"3058"|22|"Av. 19 de Octubre"|19|"04650"|"Zurgena"|"ALMERÍA"|37.342501|-2.039208|1|0|1|1|1|1|1|0|0
"01076"|1|"3058"|252|"Paseo Marqués de Corvera"|28|"30002"|"Murcia"|"MURCIA"|37.977864|-1.12994|1|0|0|0|0|1|1|0|0
"01077"|1|"3058"|60|"Pl. Constitución"|10|"04870"|"Purchena"|"ALMERÍA"|37.3481252|-2.3606628|1|0|1|1|1|1|1|0|0
"01078"|1|"3058"|552|"Passeig del Progrés"|3|"08640"|"Olesa de Montserrat"|"BARCELONA"|41.543068|1.894202|1|0|1|1|1|1|1|0|0
"01079"|1|"3058"|29|"C/ Huertos"|16|"04867"|"Macael"|"ALMERÍA"|37.33235|-2.305402|1|0|1|1|1|1|1|0|0
"01081"|1|"3058"|2009|"Av. Camp de Morvedre"|85|"46520"|"Puerto de Sagunto"|"VALENCIA"|39.6644972|-0.2268113|1|0|1|1|1|1|1|0|0
"01082"|1|"3058"|2501|"C/ Duque de Tamames"|27|"03300"|"Orihuela"|"ALICANTE"|38.081955|-0.944234|1|0|1|1|1|1|1|0|0
"01084"|1|"3058"|39|"Ctra. Guardias Viejas"|43|"04715"|"Guardias Viejas"|"ALMERÍA"|36.725401|-2.8421115|1|0|1|1|1|1|1|0|0
"01085"|1|"3058"|30|"Pl. Constitución"|5|"04850"|"Cantoria"|"ALMERÍA"|37.35248|-2.193757|1|0|1|1|1|1|1|0|0
"01086"|1|"3058"|1005|"Pl. de la Constitución"|7|"04660"|"Arboleas"|"ALMERÍA"|37.3512|-2.0753324|1|0|1|1|1|1|1|0|0
"01088"|1|"3058"|884|"Av. de Málaga"|20|"29400"|"Ronda"|"MÁLAGA"|36.747619|-5.156837|0|0|0|0|0|1|1|0|0
"01089"|1|"3058"|1920|"Av. de la Albufera"|57|"28038"|"Madrid"|"MADRID"|40.3955824|-3.6645285|1|1|0|1|1|1|1|0|0
"01093"|1|"3058"|47|"C/ Alvarez de Sotomayor"|19|"04271"|"Lubrín"|"ALMERÍA"|37.215745|-2.0675|1|0|0|0|0|1|1|0|0
"01095"|1|"3058"|379|"Av. Constitución, esq.C/Fontón"|0|"30590"|"Sucina"|"MURCIA"|37.890519|-0.942239|1|0|1|1|1|1|1|0|0
"01096"|1|"3058"|199|"Pl. Quemadero"|0|"04008"|"Almería"|"ALMERÍA"|36.8463729|-2.4668614|1|0|0|0|0|1|1|0|0
"01098"|1|"3058"|2010|"C/ Mayor"|10|"46980"|"Paterna"|"VALENCIA"|39.502419|-0.441262|1|0|0|0|0|1|1|0|0
"01100"|1|"3058"|883|"Urbanización Jarales de Alhamar"|11|"29649"|"Mijas Costa"|"MÁLAGA"|36.489215|-4.719602|1|0|0|0|0|1|1|0|0
"01101"|1|"3058"|1804|"C/ Virgen de los Milagros"|114|"11500"|"El Puerto de Santa María"|"CÁDIZ"|36.5974276|-6.2270343|1|0|1|1|1|1|1|0|0
"01102"|1|"3058"|2011|"Av. Camí Nou"|47|"46950"|"Xirivella"|"VALENCIA"|39.467205|-0.42667|1|0|0|1|1|1|1|0|0
"01104"|1|"3058"|32|"C/ Gadil"|14|"04890"|"Serón"|"ALMERÍA"|37.343592|-2.508316|1|0|1|1|1|1|1|0|0
"01110"|1|"3058"|566|"Pl. del Progrés"|2|"08191"|"Rubí"|"BARCELONA"|41.4862393|2.03544384|1|0|0|0|0|1|1|0|0
"01116"|1|"3058"|25|"C/ Bellavista"|2|"04825"|"Chirivel"|"ALMERÍA"|37.59537|-2.265748|1|0|1|1|1|1|1|0|0
"01117"|1|"3058"|74|"Pl. de la Villa"|2|"04250"|"Pechina"|"ALMERÍA"|36.916618|-2.4404386|1|0|1|1|1|1|1|0|0
"01118"|1|"3058"|14|"Pl. Andalucía"|5|"04520"|"Abrucena"|"ALMERÍA"|37.133335|-2.796214|1|0|0|0|1|1|1|0|0
"01121"|1|"3058"|1805|"Pl. del Mamelón esq. C/ Guadalete"|0|"11402"|"Jerez de la Frontera"|"CÁDIZ"|36.6887731|-6.1379178|0|0|0|0|0|1|1|0|0
"01122"|1|"3058"|2012|"Av. Gaspar Aguilar"|63|"46007"|"Valencia"|"VALENCIA"|39.45511|-0.391103|1|0|0|0|0|1|1|0|0
"01123"|1|"3058"|3001|"Pl. de la Aurora"|0|"18600"|"Motril"|"GRANADA"|36.745434|-3.516595|1|0|1|1|1|1|1|0|0
"01124"|1|"3058"|2514|"C/ Dr. Sapena esq. C/ Baltasar Tristany"|0|"03204"|"Elche"|"ALICANTE"|38.262105|-0.7090436|1|0|1|1|1|1|1|0|0
"01125"|1|"3058"|525|"C/ Conde de Urgel"|43|"08011"|"Barcelona"|"BARCELONA"|41.38125|2.1597158|0|0|0|0|0|1|1|0|0
"01127"|1|"3058"|1919|"Paseo de Extremadura"|65|"28011"|"Madrid"|"MADRID"|40.412205|-3.73194|0|0|0|0|0|1|1|0|0
"01130"|1|"3058"|2013|"C/ Mayor"|76|"46940"|"Manises"|"VALENCIA"|39.492897|-0.460868|1|0|1|1|1|1|1|0|0
"01131"|1|"3058"|3002|"Av. Medina Olmos esq. Pl.los Naranjos"|0|"18500"|"Guadix"|"GRANADA"|37.301974|-3.133957|1|0|1|1|1|1|1|0|0
"01132"|1|"3058"|3003|"Av. Antonio Machado"|21|"18680"|"Salobreña"|"GRANADA"|36.745282|-3.584787|0|0|0|0|0|1|1|0|0
"01134"|1|"3058"|56|"Pl. Mayor"|0|"04618"|"Palomares"|"ALMERÍA"|37.247505|-1.797531|1|0|1|1|1|1|1|0|0
"01135"|1|"3058"|433|"C/Cánovas del Castillo"|87|"30520"|"Jumilla"|"MURCIA"|38.4738968|-1.3272722|1|0|1|1|1|1|1|0|0
"01143"|1|"3058"|2015|"Av. Blasco Ibáñez"|57|"46920"|"Mislata"|"VALENCIA"|39.471372|-0.415444|1|1|0|1|1|1|1|0|0
"01145"|1|"3058"|3008|"Av. Dólar"|16|"18007"|"Granada"|"GRANADA"|37.159752|-3.599761|1|0|1|1|1|1|1|0|0
"01147"|1|"3058"|224|"C/ Mayor"|190|"30139"|"El Raal"|"MURCIA"|38.044853|-1.019437|1|0|1|1|1|1|1|0|0
"01148"|1|"3058"|3|"Pl. Mayor"|6|"04510"|"Abla"|"ALMERÍA"|37.14164|-2.779262|1|0|1|1|1|1|1|0|0
"01151"|1|"3058"|2950|"C/ Mayor"|29|"19001"|"Guadalajara"|"GUADALAJARA"|40.632031|-3.165433|0|0|0|0|0|1|1|0|0
"01152"|1|"3058"|287|"Av. Juan Carlos I"|1|"30566"|"Las Torres de Cotillas"|"MURCIA"|38.022047|-1.237314|1|0|1|1|1|1|1|0|0
"01156"|1|"3058"|175|"Av. Carlos III"|531|"04720"|"Aguadulce"|"ALMERÍA"|36.815409|-2.5692343|1|0|1|1|1|1|1|0|0
"01159"|1|"3058"|3006|"Pl. Poniente"|2|"18100"|"Armilla"|"GRANADA"|37.143761|-3.62772|0|0|0|0|0|1|1|0|0
"01160"|1|"3058"|3007|"C/ Recogidas"|45|"18005"|"Granada"|"GRANADA"|37.171062|-3.604181|0|0|0|0|0|1|1|0|0
"01167"|1|"3058"|526|"c/ Eduard Gibert"|46|"08940"|"Cornellá de Llobregat"|"BARCELONA"|41.3530728|2.0735488|1|0|0|0|0|1|1|0|0
"01170"|1|"3058"|229|"Barrio San Antonio"|6|"30163"|"Cobatillas"|"MURCIA"|38.0502328|-1.0821694|1|0|0|0|0|1|1|0|0
"01172"|1|"3058"|377|"Av. Murcia"|4|"30540"|"Estación de Blanca"|"MURCIA"|38.225884|-1.327136|0|0|0|0|0|1|1|0|0
"01173"|1|"3058"|899|"C/ Carril"|19|"29150"|"Almogía"|"MÁLAGA"|36.826866|-4.540465|0|0|0|0|0|1|1|0|0
"01175"|1|"3058"|10|"Rambla Obispo Orberá"|55|"04001"|"Almería"|"ALMERÍA"|36.839429|-2.459929|1|0|1|1|1|1|1|0|0
"01177"|1|"3058"|2515|"Av. Oscar Esplá"|20|"03003"|"Alicante"|"ALICANTE"|38.341294|-0.492851|1|0|1|1|1|1|1|0|0
"01180"|1|"3058"|10|"Rambla Obispo Orberá"|55|"04001"|"Almería"|"ALMERÍA"|36.839429|-2.459929|1|0|0|0|1|1|1|0|0
"01183"|1|"3058"|590|"Av. de Tarragona"|33|"08720"|"Vilafranca del Penedés"|"BARCELONA"|41.3434673|1.6974792|0|0|0|0|0|1|1|0|0
"01187"|1|"3058"|3009|"C/ Alminares del Genil"|1|"18006"|"Granada"|"GRANADA"|37.166797|-3.59548|0|0|0|0|0|1|1|0|0
"01188"|1|"3058"|2516|"Av. de la Rambla"|30|"03550"|"San Juan"|"ALICANTE"|38.400322|-0.435208|1|0|1|1|1|1|1|0|0
"01189"|1|"3058"|2517|"C/ Ramón Gallud"|109|"03180"|"Torrevieja"|"ALICANTE"|37.977483|-0.677301|1|0|1|1|1|1|1|0|0
"01196"|1|"3058"|734|"C/ Herradores"|2|"29327"|"Teba"|"MÁLAGA"|36.983384|-4.919805|1|0|1|1|1|1|1|0|0
"01197"|1|"3058"|1929|"C/ Real"|59|"28400"|"Collado Villalba"|"MADRID"|40.63122|-4.0050962|0|0|0|0|0|1|1|0|0
"01198"|1|"3058"|155|"C/ Francisco de Goya"|24|"04745"|"La Mojonera"|"ALMERÍA"|36.79402|-2.697413|0|0|0|0|0|1|1|0|0
"01201"|1|"3058"|3010|"Av. de los Ángeles"|19|"18300"|"Loja"|"GRANADA"|37.16519|-4.146706|0|0|0|0|0|1|1|0|0
"01202"|1|"3058"|3011|"C/ Alamillos"|10|"18800"|"Baza"|"GRANADA"|37.489059|-2.773865|1|0|1|1|1|1|1|0|0
"01204"|1|"3058"|303|"C/ El Llano"|0|"04647"|"Guazamara"|"ALMERÍA"|37.347703|-1.781598|1|0|0|1|1|1|1|0|0
"01205"|1|"3058"|91|"Av. Andalucía"|14|"04810"|"Oria"|"ALMERÍA"|37.485279|-2.294351|0|0|0|0|0|1|1|0|0
"01207"|1|"3058"|219|"Pl. Luis Fontes Pagán"|2|"30153"|"Corvera"|"MURCIA"|37.828605|-1.159968|1|0|1|1|1|1|1|0|0
"01208"|1|"3058"|363|"Pl. Dr. Estrada"|1|"30351"|"Alumbres"|"MURCIA"|37.590606|-0.854414|1|1|0|1|1|1|1|0|0
"01209"|1|"3058"|3012|"Avd. de Andalucia"|28|"18690"|"Almuñécar"|"GRANADA"|36.731258|-3.688982|1|0|1|1|1|1|1|0|0
"01210"|1|"3058"|699|"Passeig Prim"|34|"43202"|"Reus"|"TARRAGONA"|41.15097|1.103803|1|0|0|0|0|1|1|0|0
"01211"|1|"3058"|1931|"C/ Marroquina"|2|"28030"|"Madrid"|"MADRID"|40.406801|-3.6514393|0|0|0|0|0|1|1|0|0
"01213"|1|"3058"|2510|"Paseo del Saladar"|1|"03700"|"Denia"|"ALICANTE"|38.835822|0.104338|1|0|1|1|1|1|1|0|0
"01214"|1|"3058"|3801|"Gran Vía"|49|"02400"|"Hellín"|"ALBACETE"|38.508399|-1.695971|1|0|1|1|1|1|1|0|0
"01215"|1|"3058"|148|"Pasaje del Puerto"|10|"04700"|"El Ejido"|"ALMERÍA"|36.695797|-2.787738|1|0|0|1|1|1|1|0|0
"01217"|1|"3058"|3013|"Camino de Ronda"|124|"18003"|"Granada"|"GRANADA"|37.175241|-3.608864|1|0|1|1|1|1|1|0|0
"01218"|1|"3058"|3014|"Pl. Ánimas"|2|"18220"|"Albolote"|"GRANADA"|37.230926|-3.65682|0|0|0|0|0|1|1|0|0
"01222"|1|"3105"|2644|"C/ Ruzafa"|10|"03501"|"Benidorm"|"ALICANTE"|38.5385749|-0.129887|1|0|1|1|1|1|1|0|0
"01223"|1|"3058"|216|"C/ Mayor"|0|"30813"|"Purias"|"MURCIA"|37.595174|-1.65395|1|0|1|1|1|1|1|0|0
"01224"|1|"3058"|299|"C/ Hernández Muñoz"|2|"30165"|"Rincón de Seca"|"MURCIA"|37.979767|-1.168284|1|0|0|1|1|1|1|0|0
"01229"|1|"3058"|81|"Pl. Altamira"|1|"04005"|"Almería"|"ALMERÍA"|36.841979|-2.4560912|1|0|0|0|1|1|1|0|0
"01230"|1|"3058"|3015|"C/ Juan Miró"|2|"18140"|"La Zubia"|"GRANADA"|37.11917|-3.584107|0|0|0|0|0|1|1|0|0
"01231"|1|"3058"|3016|"C/ Flores"|2|"18320"|"Santa Fé"|"GRANADA"|37.189852|-3.717906|0|0|0|0|0|1|1|0|0
"01232"|1|"3058"|1603|"C/ Camaño"|6|"17600"|"Figueres"|"GIRONA"|42.266623|2.9629569|0|0|0|0|0|1|1|0|0
"01233"|1|"3058"|3501|"C/ Virgen de Luján"|24|"41011"|"Sevilla"|"SEVILLA"|37.37467|-5.999028|0|0|0|0|0|1|1|0|0
"01235"|1|"3058"|4201|"Paseo de Sagasta"|15|"50006"|"Zaragoza"|"ZARAGOZA"|41.643111|-0.885927|0|0|0|0|0|1|1|0|0
"01238"|1|"3058"|1930|"C/ Gobernador"|73|"28300"|"Aranjuez"|"MADRID"|40.0325125|-3.6039494|1|0|1|1|1|1|1|0|0
"01239"|1|"3058"|3017|"Pl. de España"|8|"18740"|"Castell de Ferro"|"GRANADA"|36.724619|-3.355787|1|0|1|1|1|1|1|0|0
"01242"|1|"3058"|3802|"Pl. Gabriel Lodares"|4|"02001"|"Albacete"|"ALBACETE"|38.99062|-1.856561|1|0|1|1|1|1|1|0|0
"01243"|1|"3058"|3402|"Av. Ronda de los Tejares"|11|"14001"|"Córdoba"|"CÓRDOBA"|37.888368|-4.781129|1|0|1|1|1|1|1|0|0
"01244"|1|"3058"|2519|"C/ Bailarín J. Espadero"|12|"03015"|"Alicante"|"ALICANTE"|38.362135|-0.474086|1|0|1|1|1|1|1|0|0
"01245"|1|"3058"|114|"Av. de la Estación"|12|"04006"|"Almería"|"ALMERÍA"|36.837579|-2.459016|1|0|1|1|1|1|1|0|0
"01246"|1|"3058"|592|"Rambla de les Davallades"|2|"08500"|"Vic"|"BARCELONA"|41.930664|2.253334|0|0|0|0|0|1|1|0|0
"01248"|1|"3058"|3018|"Av. Andalucía"|2|"18014"|"Granada"|"GRANADA"|37.18747|-3.611249|1|0|1|1|1|1|1|0|0
"01251"|1|"3058"|4101|"Rambla Ferran"|20|"25007"|"Lleida"|"LLEIDA"|41.61739|-0.629998|1|0|1|1|1|1|1|0|0
"01254"|1|"3058"|264|"Pl. de las Flores,esq.C/Ruip"|0|"30002"|"Murcia"|"MURCIA"|37.984918|-1.1333885|1|0|0|0|0|1|1|0|0
"01255"|1|"3058"|273|"C/ Mayor,esq.C/Cervantes"|0|"30150"|"La Alberca"|"MURCIA"|37.9411599|-1.1443698|1|0|1|1|1|1|1|0|0
"01258"|1|"3058"|1938|"Av. del Ejército"|17|"28500"|"Arganda del Rey"|"MADRID"|40.3020746|-3.4467101|0|0|0|0|0|1|1|0|0
"01260"|1|"3058"|3020|"C/ Brasil"|2|"18210"|"Peligros"|"GRANADA"|37.230405|-3.627389|0|0|0|0|0|1|1|0|0
"01261"|1|"3058"|3021|"C/ San Ramón"|85|"18194"|"Churriana de la Vega"|"GRANADA"|37.14655|-3.648999|1|0|1|1|1|1|1|0|0
"01262"|1|"3058"|3401|"Ejido Plaza Toros"|1|"14900"|"Lucena"|"CÓRDOBA"|37.409893|-4.492067|0|0|0|0|0|1|1|0|0
"01263"|1|"3058"|4601|"Av. Martín Alonso Pinzón"|8|"21003"|"Huelva"|"HUELVA"|37.256106|-6.949384|1|0|1|1|1|1|1|0|0
"01266"|1|"3058"|276|"C/ Mayor, esq. Calle San Jose"|0|"30120"|"El Palmar"|"MURCIA"|37.940463|-1.161938|1|0|0|0|1|1|1|0|0
"01267"|1|"3058"|48|"Pl. Francisco Molina"|0|"04279"|"Uleila del Campo"|"ALMERÍA"|37.184356|-2.205055|0|0|0|0|0|1|1|0|0
"01268"|1|"3058"|100|"Av. Juan Carlos I"|1|"04869"|"Fines"|"ALMERÍA"|37.359163|-2.2642|1|0|1|1|1|1|1|0|0
"01270"|1|"3058"|277|"C/ Pintor Almela Costa"|0|"30011"|"Murcia"|"MURCIA"|37.975782|-1.1199699|1|0|0|1|1|1|1|0|0
"01272"|1|"3058"|199|"Correos, Frente Bar Emigrante"|0|"04118"|"San José"|"ALMERÍA"|36.76243|-2.109141|0|0|0|0|0|1|1|0|0
"01273"|1|"3058"|292|"Av. Estación"|22|"30500"|"Molina de Segura"|"MURCIA"|38.053023|-1.214881|1|0|1|1|1|1|1|0|0
"01274"|1|"3058"|199|"Av. del Mediterráneo"|0|"04740"|"Roquetas de Mar"|"ALMERÍA"|36.725124|-2.625336|0|0|0|0|0|1|1|0|0
"01275"|1|"3058"|3022|"Camino de Albolote"|0|"18200"|"Maracena"|"GRANADA"|37.208798|-3.632129|1|0|0|0|0|1|1|0|0
"01276"|1|"3058"|3023|"Gran Vía de Colón"|7|"18001"|"Granada"|"GRANADA"|37.176824|-3.598111|1|0|0|0|0|1|1|0|0
"01277"|1|"3058"|3201|"Av. Andalucía"|15|"23680"|"Alcala la Real"|"JAÉN"|37.458656|-3.922341|1|0|1|1|1|1|1|0|0
"01278"|1|"3058"|209|"Pl. Manuel Zamora"|5|"30593"|"La Palma"|"MURCIA"|37.689331|-0.96198|1|0|1|1|1|1|1|0|0
"01280"|1|"3058"|4501|"Av. Joan March Ordinas"|8|"07004"|"Palma"|"BALEARES"|39.57722|2.652999|1|0|1|1|1|1|1|0|0
"01281"|1|"3058"|1935|"Av. Pablo Iglesias"|81|"28522"|"Rivas-Vaciamadrid"|"MADRID"|40.348523|-3.525066|0|0|0|0|0|1|1|0|0
"01285"|1|"3058"|1807|"C/ San Juan"|10|"11540"|"Sanlúcar de Barrameda"|"CÁDIZ"|36.778474|-6.354463|1|1|0|1|1|1|1|0|0
"01286"|1|"3058"|5001|"C/ Miguel Íscar"|1|"47001"|"Valladolid"|"VALLADOLID"|41.64828|-4.729035|1|0|1|1|1|1|1|0|0
"01289"|1|"3058"|504|"C/ Ángel Guimerá"|16|"08240"|"Manresa"|"BARCELONA"|41.72613826|1.82399475|0|0|0|0|0|1|1|0|0
"01290"|1|"3058"|5040|"Pl. San Juan"|1|"47250"|"Mojados"|"VALLADOLID"|41.432053|-4.664179|1|1|0|1|1|1|1|0|0
"01291"|1|"3058"|5008|"Pl. San Bartolomé"|1|"47009"|"Valladolid"|"VALLADOLID"|41.66077|-4.733777|1|0|1|1|1|1|1|0|0
"01292"|1|"3058"|5040|"C/ Miguel Delibes"|26|"47000"|"Portillo"|"VALLADOLID"|41.474257|-4.59294|1|0|0|0|0|1|1|0|0
"01293"|1|"3058"|5059|"C/ Real"|15|"47420"|"Íscar"|"VALLADOLID"|41.363298|-4.531538|1|0|1|1|1|1|1|0|0
"01294"|1|"3058"|505|"Portal de Sant Roc"|39|"08221"|"Terrassa"|"BARCELONA"|41.5606842|2.00835346|1|0|1|1|1|1|1|0|0
"01295"|1|"3058"|5058|"C/ Del Caño"|8|"47430"|"Pedrajas de San Esteban"|"VALLADOLID"|41.342254|-4.580998|0|0|0|0|0|1|1|0|0
"01296"|1|"3058"|5077|"C/ de Jesús"|2|"47680"|"Mayorga"|"VALLADOLID"|42.165996|-5.260305|1|1|0|1|1|1|1|0|0
"01297"|1|"3058"|5056|"C/ Simón Ruiz"|3|"47400"|"Medina del Campo"|"VALLADOLID"|41.307923|-4.914708|1|1|0|1|1|1|1|0|0
"01298"|1|"3058"|5057|"Av. de la Constitución"|5|"47400"|"Medina del Campo"|"VALLADOLID"|41.314914|-4.913823|1|0|1|1|1|1|1|0|0
"01299"|1|"3058"|506|"C/ Francesc Layret"|149|"08911"|"Badalona"|"BARCELONA"|41.45182531|2.2492273|1|0|0|0|0|1|1|0|0
"01300"|1|"3058"|5079|"Pl. Santo Domingo"|2|"47800"|"Medina de Rioseco"|"VALLADOLID"|41.88301|-5.045074|1|0|1|1|1|1|1|0|0
"01301"|1|"3058"|5067|"C/ Mateo Retiniana"|8|"47500"|"Nava del Rey"|"VALLADOLID"|41.330807|-5.081263|0|0|0|0|0|1|1|0|0
"01302"|1|"3058"|5058|"Av. Diez de Octubre"|7|"47410"|"Olmedo"|"VALLADOLID"|41.287264|-4.684907|1|0|0|0|1|1|1|0|0
"01303"|1|"3058"|5049|"Av. Constitución"|26|"47300"|"Peñafiel"|"VALLADOLID"|41.599663|-4.118618|1|0|0|1|1|1|1|0|0
"01305"|1|"3058"|221|"C/ Maestro Martínez"|19|"30562"|"Ceutí"|"MURCIA"|38.078044|-1.27294|1|0|0|0|0|1|1|0|0
"01306"|1|"3058"|222|"C/ Salvador Allende"|18|"30620"|"Fortuna"|"MURCIA"|38.178541|-1.125457|1|0|1|1|1|1|1|0|0
"01307"|1|"3058"|370|"Ctra. Cabo de Palos"|9|"30385"|"Los Belones"|"MURCIA"|37.622693|-0.774608|1|0|0|0|1|1|1|0|0
"01308"|1|"3058"|242|"C/ Real"|53|"30832"|"Javalí Nuevo"|"MURCIA"|37.986261|-1.2174332|1|0|1|1|1|1|1|0|0
"01309"|1|"3058"|262|"Pl. Juan XXIII,esq.C/Juan de la Cierva"|0|"30850"|"Totana"|"MURCIA"|37.771037|-1.4989578|1|0|1|1|1|1|1|0|0
"01311"|1|"3058"|240|"Av. Dr. Ayala"|11|"30560"|"Alguazas"|"MURCIA"|38.051107|-1.243231|0|0|0|0|0|1|1|0|0
"01312"|1|"3058"|399|"Puerta Del Sol, Esq. García Tapia"|0|"30393"|"Cartagena"|"MURCIA"|37.634615|-1.001553|1|0|0|0|0|1|1|0|0
"01314"|1|"3058"|5037|"C/ Santa María"|39|"47100"|"Tordesillas"|"VALLADOLID"|41.502543|-5.000539|1|0|1|1|1|1|1|0|0
"01315"|1|"3058"|5053|"C/ Calvario"|1|"47320"|"Tudela de Duero"|"VALLADOLID"|41.58719|-4.58304|1|0|1|1|1|1|1|0|0
"01316"|1|"3058"|5073|"C/ La Rúa"|39|"47600"|"Villalón de Campos"|"VALLADOLID"|42.097773|-5.036121|1|1|0|1|1|1|1|0|0
"01317"|1|"3058"|5010|"C/ Madre de Dios"|27|"47011"|"Valladolid"|"VALLADOLID"|41.659543|-4.714315|1|0|1|1|1|1|1|0|0
"01318"|1|"3058"|5005|"C/ Joaquín María Jalón"|20|"47008"|"Valladolid"|"VALLADOLID"|41.626823|-4.74147|1|0|1|1|1|1|1|0|0
"01319"|1|"3058"|5005|"C/ Real"|136|"47152"|"Puente Duero"|"VALLADOLID"|41.554421|-4.791053|0|0|0|0|0|1|1|0|0
"01320"|1|"3058"|5018|"Ctra. de Madrid"|38|"47140"|"Laguna de Duero"|"VALLADOLID"|41.581416|-4.719636|1|0|0|0|0|1|1|0|0
"01321"|1|"3058"|5018|"Pl. Condes de Gamazo"|6|"47151"|"Boecillo"|"VALLADOLID"|41.540811|-4.699262|1|0|0|0|0|1|1|0|0
"01322"|1|"3058"|5013|"Av. Segovia"|123|"47013"|"Valladolid"|"VALLADOLID"|41.639116|-4.721117|1|1|0|1|1|1|1|0|0
"01323"|1|"3058"|5011|"C/ Cigüeña"|2|"47012"|"Valladolid"|"VALLADOLID"|41.644071|-4.713811|1|0|1|1|1|1|1|0|0
"01324"|1|"3058"|523|"Pl. Comas"|2|"08028"|"Barcelona"|"BARCELONA"|41.3854161|2.12984878|1|0|1|1|1|1|1|0|0
"01328"|1|"3058"|5015|"C/ Juan Martínez Villergas"|3|"47014"|"Valladolid"|"VALLADOLID"|41.63566|-4.756726|1|0|1|1|1|1|1|0|0
"01329"|1|"3058"|5032|"Pl. Lagunajo"|19|"47270"|"Cigales"|"VALLADOLID"|41.758372|-4.699187|1|0|0|0|0|1|1|0|0
"01330"|1|"3058"|5199|"C/ Industrias"|21|"47195"|"Arroyo de la Encomienda"|"VALLADOLID"|41.625091|-4.773774|0|0|0|0|1|1|1|0|0
"01331"|1|"3058"|5032|"Pl. de la Concordia"|1|"47260"|"Cabezón de Pisuerga"|"VALLADOLID"|41.7341|-4.646337|1|0|0|0|0|1|1|0|0
"01332"|1|"3058"|5034|"C/ Eras"|2|"47610"|"Zaratán"|"VALLADOLID"|41.660144|-4.782239|1|1|0|1|1|1|1|0|0
"01333"|1|"3058"|5065|"C/ Dr. Eugenio Velasco"|1|"47490"|"Rueda"|"VALLADOLID"|41.413931|-4.959878|0|0|0|0|0|1|1|0|0
"01334"|1|"3058"|516|"C/ Balmes"|150|"08008"|"Barcelona"|"BARCELONA"|41.394216|2.156667|0|0|0|0|0|1|1|0|0
"01335"|1|"3058"|5199|"C/ Pío del Río Hortega"|6|"47014"|"Valladolid"|"VALLADOLID"|41.653728|-4.739501|1|0|0|0|0|1|1|0|0
"01337"|1|"3058"|113|"Av. Guillermo Reina"|29|"04600"|"Huércal Overa"|"ALMERÍA"|37.3925537|-1.9445792|1|0|0|0|0|1|1|0|0
"01339"|1|"3058"|5008|"C/ Nueva"|1|"47194"|"Valladolid"|"VALLADOLID"|41.706674|-4.764097|0|0|0|0|0|1|1|0|0
"01340"|1|"3058"|5003|"Pl. Circular"|1|"47005"|"Valladolid"|"VALLADOLID"|41.647759|-4.716804|1|0|1|1|1|1|1|0|0
"01347"|1|"3058"|291|"C/ El Carmen"|45|"30201"|"Cartagena"|"MURCIA"|37.604542|-0.989885|1|0|1|1|1|1|1|0|0
"01352"|1|"3058"|5201|"C/ Mayor Principal"|27|"34001"|"Palencia"|"PALENCIA"|42.012208|-4.533169|1|0|1|1|1|1|1|0|0
"01353"|1|"3058"|5202|"Pl. San Lázaro"|6|"34001"|"Palencia"|"PALENCIA"|42.009103|-4.529779|1|0|1|1|1|1|1|0|0
"01354"|1|"3058"|5204|"C/ Cardenal Cisneros"|2|"34001"|"Palencia"|"PALENCIA"|42.001441|-4.526528|1|0|1|1|1|1|1|0|0
"01355"|1|"3058"|5205|"Av. Asturias"|2|"34005"|"Palencia"|"PALENCIA"|42.016508|-4.540036|1|0|1|1|1|1|1|0|0
"01357"|1|"3058"|5207|"Pl. Caídos"|0|"34120"|"Carrión de los Condes"|"PALENCIA"|42.338903|-4.60355|1|0|0|0|0|1|1|0|0
"01358"|1|"3058"|5219|"Av. del Ejército Español"|2|"34440"|"Fromista"|"PALENCIA"|42.268147|-4.405206|1|1|0|1|1|1|1|0|0
"01359"|1|"3058"|5210|"C/ Juan Ramón Jiménez"|34|"34200"|"Venta de Baños"|"PALENCIA"|41.921559|-4.488655|1|0|0|0|0|1|1|0|0
"01360"|1|"3058"|5206|"Av. José Quintana"|2|"34100"|"Saldaña"|"PALENCIA"|42.521894|-4.737822|1|1|0|1|1|1|1|0|0
"01361"|1|"3058"|5221|"C/ Puente"|1|"34800"|"Aguilar de Campoo"|"PALENCIA"|42.792818|-4.262588|1|0|0|0|0|1|1|0|0
"01362"|1|"3058"|5221|"C/ Mónica Plaza"|2|"34840"|"Cervera de Pisuerga"|"PALENCIA"|42.866615|-4.498891|1|0|0|0|0|1|1|0|0
"01364"|1|"3058"|5301|"C/ Duque de Alba"|2|"05001"|"Ávila"|"ÁVILA"|40.654695|-4.694123|1|0|1|1|1|1|1|0|0
"01365"|1|"3058"|5301|"Pl. José Antonio Vaca de Osma"|2|"05350"|"San Pedro del Arroyo"|"ÁVILA"|40.801799|-4.870205|1|0|0|0|0|1|1|0|0
"01367"|1|"3058"|5303|"C/ Don Alí Alfaquí"|1|"05003"|"Ávila"|"ÁVILA"|40.651341|-4.702342|1|0|0|0|0|1|1|0|0
"01368"|1|"3058"|5305|"Pl. del Arrabal"|45|"05200"|"Arévalo"|"ÁVILA"|41.063902|-4.720795|1|0|1|1|1|1|1|0|0
"01369"|1|"3058"|5307|"C/ El Baile"|5|"05220"|"Madrigal de las Altas Torres"|"ÁVILA"|41.089071|-4.998565|0|0|0|0|0|1|1|0|0
"01370"|1|"3058"|5401|"Gran Vía de San Marcos"|12|"24001"|"León"|"LEÓN"|42.599251|-5.574961|1|0|1|1|1|1|1|0|0
"01371"|1|"3058"|5407|"C/ Informantes"|4|"24320"|"Sahagún"|"LEÓN"|42.371782|-5.029678|1|0|1|1|1|1|1|0|0
"01372"|1|"3058"|5406|"Pl. de San Nicolás"|1|"24210"|"Mansilla de las Mulas"|"LEÓN"|42.500271|-5.419017|1|1|0|1|1|1|1|0|0
"01373"|1|"3058"|5402|"C/ Pendón de Baeza"|26|"24006"|"León"|"LEÓN"|42.591179|-5.563095|1|1|0|1|1|1|1|0|0
"01374"|1|"3058"|5404|"Av. Párroco Pablo Díez"|289|"24010"|"Trobajo del Camino"|"LEÓN"|42.596028|-5.610259|1|1|0|1|1|1|1|0|0
"01376"|1|"3058"|25|"Pl. Padre Tapia"|0|"04830"|"Vélez Blanco"|"ALMERÍA"|37.691691|-2.096018|1|0|0|0|0|1|1|0|0
"01377"|1|"3058"|2|"Ctra. Estación"|0|"04815"|"Albox"|"ALMERÍA"|37.347376|-2.136615|1|0|0|0|0|1|1|0|0
"01378"|1|"3058"|4402|"C/ República Dominicana"|2|"45004"|"Toledo"|"TOLEDO"|39.866872|-4.030342|1|0|0|0|0|1|1|0|0
"01381"|1|"3058"|545|"C/ Mallor"|26|"08750"|"Molins de Rei"|"BARCELONA"|41.411995|2.0180302|1|0|1|1|1|1|1|0|0
"01384"|1|"3058"|3502|"Av. La Buhaira"|10|"41018"|"Sevilla"|"SEVILLA"|37.385495|-5.978891|1|0|1|1|1|1|1|0|0
"01385"|1|"3058"|91|"Pl. Mayor"|5|"04692"|"Taberno"|"ALMERÍA"|37.467794|-2.0766037|1|0|0|0|0|1|1|0|0
"01389"|1|"3058"|3202|"Av. de Andalucía"|2|"23700"|"Linares"|"JAÉN"|38.09308|-3.638192|0|0|0|0|0|1|1|0|0
"01391"|1|"3058"|2023|"C/ Archiduque Carlos"|77|"46014"|"Valencia"|"VALENCIA"|39.46126|-0.399015|1|0|1|1|1|1|1|0|0
"01393"|1|"3058"|3505|"C/ Canónigo"|73|"41700"|"Dos Hermanas"|"SEVILLA"|37.282163|-5.921845|0|0|0|0|0|1|1|0|0
"01394"|1|"3058"|739|"Pl. Carmelitas"|6|"29700"|"Vélez Málaga"|"MÁLAGA"|36.781249|-4.104554|1|0|0|1|1|1|1|0|0
"01396"|1|"3058"|5501|"Av. Luis Rodríguez de Miguel"|2|"49800"|"Toro"|"ZAMORA"|41.525271|-5.391047|1|0|0|0|0|1|1|0|0
"01397"|1|"3058"|4002|"Rambla Nova"|113|"43001"|"Tarragona"|"TARRAGONA"|41.118203|1.247919|1|0|1|1|1|1|1|0|0
"01399"|1|"3058"|5701|"Pl. España"|10|"37004"|"Salamanca"|"SALAMANCA"|40.968434|-5.658872|1|0|0|0|0|1|1|0|0
"01402"|1|"3058"|5801|"Pl. Mariano Granados"|5|"42002"|"Soria"|"SORIA"|41.764213|-2.46922|1|1|0|1|1|1|1|0|0
"01403"|1|"3058"|4701|"C/ Juan II"|5|"13001"|"Ciudad Real"|"CIUDAD REAL"|38.983982|-3.929951|1|0|0|0|0|1|1|0|0
"01404"|1|"3058"|6001|"C/ Hermilio Alcalde del Río"|2|"39300"|"Torrelavega"|"CANTABRIA"|43.348985|-4.051683|1|1|0|1|1|1|1|0|0
"01405"|1|"3058"|5410|"C/ Carlos Pinilla esq. Pl. Santa Teresa"|0|"24200"|"Valencia de Don Juan"|"LEÓN"|42.290955|-5.518144|1|0|0|0|0|1|1|0|0
"01406"|1|"3058"|5303|"C/ Principal"|36|"05230"|"Las Navas del Marqués"|"ÁVILA"|40.602997|-4.332383|1|0|0|0|0|1|1|0|0
"01407"|1|"3058"|5503|"C/ Santa Cruz"|46|"49600"|"Benavente"|"ZAMORA"|42.00309|-5.674576|1|0|0|0|0|1|1|0|0
"01408"|1|"3058"|5602|"C/ Estación"|18|"09200"|"Miranda de Ebro"|"BURGOS"|42.686345|-2.94694|1|1|0|1|1|1|1|0|0
"01409"|1|"3058"|5411|"Pl. Mayor"|4|"24750"|"La Bañeza"|"LEÓN"|42.299944|-5.897644|1|0|0|0|0|1|1|0|0
"01410"|1|"3058"|5601|"Av. de la Paz"|6|"09004"|"Burgos"|"BURGOS"|42.34405|-3.69521|1|0|0|0|0|1|1|0|0
"01412"|1|"3058"|5502|"C/ Alfonso IX"|11|"49013"|"Zamora"|"ZAMORA"|41.507645|-5.742888|1|0|0|0|0|1|1|0|0
"01414"|1|"3058"|5603|"C/ Miranda do Douro"|6|"09400"|"Aranda de Duero"|"BURGOS"|41.669189|-3.686402|1|0|0|0|0|1|1|0|0
"01415"|1|"3058"|5215|"Plz. Mayor"|12|"34340"|"Villada"|"PALENCIA"|42.250726|-4.966067|1|0|0|0|1|1|1|0|0
"01416"|1|"3058"|5412|"Av. de España"|6|"24400"|"Ponferrada"|"LEÓN"|42.547909|-6.598998|1|0|0|0|0|1|1|0|0
"01417"|1|"3058"|86|"C/ Calzada de Castro"|50|"04006"|"Almería"|"ALMERÍA"|36.838124|-2.451153|1|0|0|0|0|1|1|0|0
"01421"|1|"3058"|158|"Puerta Purchena"|10|"04004"|"Almería"|"ALMERÍA"|36.841733|-2.464025|1|0|0|0|1|1|1|0|0
"01422"|1|"3058"|158|"Puerta Purchena"|10|"04004"|"Almería"|"ALMERÍA"|36.841733|-2.464025|1|0|1|1|1|1|1|0|0
"01423"|1|"3058"|5901|"C/ Uría"|45|"33202"|"Gijón"|"ASTURIAS"|43.537841|-5.653727|1|0|0|0|0|1|1|0|0
"01424"|1|"3058"|5040|"C/ Jorge Guillén"|8|"47162"|"Portillo"|"VALLADOLID"|41.511698|-4.640533|0|0|0|0|0|1|1|0|0
"01425"|1|"3058"|4603|"Av. Blas Infante"|10|"21440"|"Lepe"|"HUELVA"|37.250733|-7.203115|1|0|0|0|0|1|1|0|0
"01427"|1|"3058"|0|"Paseo de Almería"|75|"04001"|"Almería"|"ALMERÍA"|36.8360237|-2.4627615|1|0|1|0|0|1|1|0|0
"01428"|1|"3058"|3404|"C/ Mesones"|1|"14800"|"Priego de Córdoba"|"CÓRDOBA"|37.438396|-4.194112|0|0|0|0|0|1|1|0|0
"01429"|1|"3058"|3506|"Av. Miguel de Cervantes"|2|"41400"|"Écija"|"SEVILLA"|37.540788|-5.079151|1|0|0|0|0|1|1|0|0
"01431"|1|"3058"|2902|"C/ Chorretones"|2|"40200"|"Cuéllar"|"SEGOVIA"|41.39942|-4.312153|1|0|0|0|1|1|1|0|0
"01432"|1|"3058"|199|"Pº Pedro Ponce Esq C/ Fresno S/N"|0|"04700"|"El Ejido"|"ALMERÍA"|36.775062|-2.812738|0|0|0|0|0|1|1|0|0
"01433"|1|"3058"|5413|"Pl. Santocildes"|5|"24700"|"Astorga"|"LEÓN"|42.455417|-6.053043|1|0|0|0|1|1|1|0|0
"01434"|1|"3058"|4801|"Av. Baja Navarra"|3|"31002"|"Pamplona"|"NAVARRA"|42.813059|-1.641534|1|0|0|0|1|1|1|0|0
"01435"|1|"3058"|6002|"C/ Marcelino Sanz de Sautuola"|12|"39003"|"Santander"|"CANTABRIA"|43.463442|-3.803662|1|0|0|0|1|1|1|0|0
"01436"|1|"3058"|465|"Av. Principal"|2|"30739"|"San Pedro del Pinatar"|"MURCIA"|37.8437861|-0.85295|1|0|1|1|1|1|1|0|0
"01437"|1|"3058"|4901|"Av. Portugal"|2|"26001"|"Logroño"|"LA RIOJA"|42.464388|-2.447224|1|0|0|0|1|1|1|0|0
"01438"|1|"3058"|260|"Ctra. Lorca"|3|"30810"|"Zarcilla de Ramos"|"MURCIA"|37.84326|-1.876566|0|0|0|0|0|1|1|0|0
"01439"|1|"3058"|46|"C/ Fuente"|1|"04460"|"Laujar de Andarax"|"ALMERÍA"|36.97997|-2.85877|1|0|0|0|0|1|1|0|0
"01440"|1|"3058"|49|"Ctra. Cabo de Gata"|7|"04150"|"Pujaire"|"ALMERÍA"|36.795557|-2.231555|1|0|1|1|1|1|1|0|0
"01441"|1|"3058"|3203|"Pso. de la Estación esq. Batalla Bailén"|0|"23007"|"Jaén"|"JAÉN"|37.769918|-3.788137|1|0|0|0|1|1|1|0|0
"01442"|1|"3058"|6401|"C/ Durán Loriga"|6|"15003"|"A Coruña"|"A CORUÑA"|43.368022|-8.404131|1|0|0|0|1|1|1|0|0
"01443"|1|"3058"|6601|"C/ Juan XXIII"|16|"32003"|"Ourense"|"OURENSE"|42.341031|-7.865495|1|0|0|0|1|1|1|0|0
"01445"|1|"3058"|3027|"Av. Andalucía esq. C/ Las Golondrinas"|0|"18230"|"Atarfe"|"GRANADA"|37.222871|-3.689196|1|0|0|0|0|1|1|0|0
"01446"|1|"3058"|3028|"Pl. Mayor"|12|"18830"|"Huéscar"|"GRANADA"|37.809428|-2.53944|1|0|0|0|0|1|1|0|0
"01447"|1|"3058"|199|"La Venta"|2|"04648"|"San Juan de los Terreros"|"ALMERÍA"|37.360467|-1.663846|0|0|0|1|1|1|1|0|0
"01453"|1|"3058"|3|"C/ Sebastián Pérez"|91|"04550"|"Abla"|"ALMERÍA"|37.118186|-2.539623|0|0|0|0|0|1|1|0|0
"01454"|1|"3058"|14|"C/ Santiago"|12|"04500"|"Fiñana"|"ALMERÍA"|37.170875|-2.840374|0|0|0|0|0|1|1|0|0
"01455"|1|"3058"|3406|"C/ Castillejo"|6|"14700"|"Palma del Río"|"CÓRDOBA"|37.697914|-5.282278|1|0|0|0|0|1|1|0|0
"01457"|1|"3058"|213|"C/ Mayor"|22|"30893"|"Almendricos"|"MURCIA"|37.473148|-1.776736|0|0|0|0|0|1|1|0|0
"01458"|1|"3058"|5023|"C/ Santa Isabel"|34|"47170"|"Renedo de Esgueva"|"VALLADOLID"|41.654609|-4.629241|1|0|0|0|0|1|1|0|0
"01459"|1|"3058"|6402|"C/ Concepción Arenal"|22|"15402"|"Ferrol"|"A CORUÑA"|43.48382|-8.234528|0|0|0|0|1|1|1|0|0
"01460"|1|"3058"|199|"Ctra. Viator esq.Ctra. Los Cortijillos"|0|"04120"|"La Cañada"|"ALMERÍA"|36.853029|-2.387402|1|0|0|0|0|1|1|0|0
"01461"|1|"3029"|7250|"C/ Jaime I"|9|"03610"|"Petrer"|"ALICANTE"|38.482097|-0.779975|1|0|1|0|1|1|1|0|0
"01462"|1|"3058"|3407|"C/ Santa Rosalía"|17|"14940"|"Cabra"|"CÓRDOBA"|37.473015|-4.443524|0|0|0|0|1|1|1|0|0
"01463"|1|"3058"|3205|"Pl. de la Fuente Nueva"|20|"23600"|"Martos"|"JAÉN"|37.722454|-3.970417|0|0|0|0|0|1|1|0|0
"01464"|1|"3058"|4600|"Pl. del Marqués"|2|"21800"|"Moguer"|"HUELVA"|37.275751|-6.837693|1|0|1|1|1|1|1|0|0
"01465"|1|"3029"|7242|"Av. de Elda"|14|"03610"|"Petrer"|"ALICANTE"|38.481894|-0.786096|1|0|1|0|0|1|1|0|0
"01466"|1|"3058"|199|"Plza Frontón Esq. Calle Alcalde Jacinto"|0|"04638"|"Mojácar"|"ALMERÍA"|37.141039|-1.85183|0|0|0|0|0|1|1|0|0
"01467"|1|"3058"|4802|"Av. Zaragoza"|1|"31500"|"Tudela"|"NAVARRA"|42.062484|-1.603066|0|0|0|0|0|1|1|0|0
"01470"|1|"3058"|4902|"C/Mártires"|17|"26500"|"Calahorra"|"LA RIOJA"|42.3030956|-1.9643018|0|0|0|0|0|1|1|0|0
"01473"|1|"3058"|7000|"Gran Vía Marqués del Turia"|59|"46004"|"Valencia"|"VALENCIA"|39.4678506|-0.3657597|1|0|0|0|0|1|1|0|0
"01474"|1|"3058"|299|"C/Río Borines"|58|"30710"|"Los Alcázares"|"MURCIA"|37.754451|-0.846317|1|0|0|0|0|1|1|0|0
"01475"|1|"3058"|2558|"C/ Virgen"|7|"03578"|"Finestrat"|"ALICANTE"|38.587332|-0.311044|1|0|0|0|0|1|1|0|0
"01476"|1|"3058"|2340|"C/ Santa Bárbara"|15|"46450"|"Benifaió"|"VALENCIA"|39.284273|-0.425949|1|0|1|1|1|1|1|0|0
"01477"|1|"3058"|7380|"C/ San Blas"|24|"12122"|"Figueroles"|"CASTELLÓN"|40.116869|-0.236486|1|0|0|0|0|1|1|0|0
"01478"|1|"3058"|73|"Ctra. Níjar"|299|"04009"|"Almería"|"ALMERÍA"|36.845898|-2.4401363|1|0|1|1|1|1|1|0|0
"01479"|1|"3058"|3204|"Ollerías, esq. Calderos"|14|"23740"|"Andújar"|"JAÉN"|38.038086|-4.053071|1|0|0|0|1|1|1|0|0
"01480"|1|"3058"|263|"Camino de Cartagena"|150|"30815"|"Marchena"|"MURCIA"|37.679694|-1.64457|1|0|1|1|1|1|1|0|0
"01482"|1|"3058"|7000|"Campus del Riu Sec"|0|"12071"|"Castellón de la Plana"|"CASTELLÓN"|39.996133|-0.066196|1|0|1|0|0|1|1|0|0
"01484"|1|"3058"|4604|"Pl. Virgen del Rocio"|0|"21730"|"Almonte"|"HUELVA"|37.262089|-6.518126|1|0|1|1|1|1|1|0|0
"01485"|1|"3058"|163|"C/Madrid,esq.C/Hermanos Lirola"|0|"04700"|"El Ejido"|"ALMERÍA"|36.772222|-2.8119137|1|0|1|1|1|1|1|0|0
"01486"|1|"3058"|4565|"Cardenal Rossell"|182|"07007"|"Es Coll De`n Rabassa"|"BALEARES"|39.55293|2.701849|1|0|1|1|1|1|1|0|0
"01487"|1|"3058"|4564|"Avd.Rei Jaume I"|109|"07180"|"Santa Ponca"|"BALEARES"|39.515947|2.483632|1|0|0|1|1|1|1|0|0
"01489"|1|"3058"|7380|"Carlos Fabra"|1|"12124"|"Villahermosa Del Rio"|"CASTELLÓN"|40.20272|-0.41782|1|0|0|0|0|1|1|0|0
"01490"|1|"3058"|186|"Cl. Los Llanos"|13|"04288"|"Bedar"|"ALMERÍA"|37.19193|-1.980692|0|0|0|0|0|1|1|0|0
"01491"|1|"3058"|206|"Av. Tierno Galván"|1|"30860"|"Puerto Mazarron"|"MURCIA"|37.56536|-1.260907|1|0|1|1|1|1|1|0|0
"01493"|1|"3058"|66|"Bilbao, esq plaza Manolo Escobar"|1|"04007"|"Almeria"|"ALMERÍA"|36.82708|-2.435696|1|0|0|1|1|1|1|0|0
"01494"|1|"3058"|66|"BIlbao, esq.plaza Manolo Escobar"|1|"04007"|"Almeria"|"ALMERÍA"|36.82708|-2.435696|1|0|1|1|1|1|1|0|0
"01495"|1|"3058"|437|"Plaza Julian Romea"|NA|"30001"|"Murcia"|"MURCIA"|37.98684|-1.1311|1|0|1|1|1|1|1|0|0
"01496"|1|"3058"|4803|"Avd. Pio XII"|2|"31007"|"Pamplona/Iruña"|"NAVARRA"|42.81303|-1.655103|1|0|0|1|1|1|1|0|0
"01497"|1|"3058"|2339|"Pl. L Esglesia"|9|"46270"|"Villanueva de Castellón"|"VALENCIA"|39.076859|-0.512658|1|0|0|0|0|1|1|0|0
"01498"|1|"3058"|3408|"Avd. Villanueva de Cordoba"|39|"14400"|"Pozoblanco"|"CÓRDOBA"|38.381201|-4.849507|1|1|0|1|1|1|1|0|0
"01499"|1|"3058"|4804|"Av.Severino Fernadez"|16|"31300"|"Tafalla"|"NAVARRA"|42.527233|-1.674628|1|0|0|1|1|1|1|0|0
"01500"|1|"3058"|4702|"Seis de Junio"|80|"13300"|"Valdepeñas"|"CIUDAD REAL"|38.75811|-3.3882|1|1|0|1|1|1|1|0|0
"01501"|1|"3058"|4605|"Rabida, esq c. Andal"|18|"21810"|"Palos de la Frontera"|"HUELVA"|37.22813|-6.893992|1|1|0|1|1|1|1|0|0
"01502"|1|"3058"|2515|"Av. Oscar Esplá"|20|"03003"|"Alicante"|"ALICANTE"|38.34129|-0.492851|1|0|1|1|1|1|1|0|0
"01503"|1|"3058"|112|"Av. Juan Carlos I"|15|"04740"|"Roquetas de Mar"|"ALMERÍA"|36.765384|-2.6131156|1|0|1|1|1|1|1|0|0
"01504"|1|"3058"|5702|"Filiberto Villalobos"|79|"37770"|"Guijuelo"|"SALAMANCA"|40.55699|-5.672986|1|1|0|1|1|1|1|0|0
"01506"|1|"3058"|211|"C/ Hermanos Machado"|2|"30319"|"Miranda"|"MURCIA"|37.678012|-1.021364|1|0|0|1|1|1|1|0|0
"01507"|1|"3058"|113|"Av. Guillermo Reina"|29|"04600"|"Huércal Overa"|"ALMERÍA"|37.392553|-1.9445792|1|0|1|1|1|1|1|0|0
"01508"|1|"3058"|2086|"Pz del Mercat"|14|"46680"|"Algemesi"|"VALENCIA"|39.1907175|-0.4366265|1|1|0|1|1|1|1|0|0
"01509"|1|"3058"|3803|"San Bernardo"|13|"02600"|"Albacete"|"ALBACETE"|39.265032|-2.6042127|1|1|0|1|1|1|1|0|0
"01510"|1|"3058"|5414|"Cl Cirilo Santos"|38|"24240"|"Santa Maria del Paramo"|"LEÓN"|42.35448|-5.749787|1|0|0|1|1|1|1|0|0
"01511"|1|"3058"|4703|"Emilio Castelar"|4|"13600"|"Alcazar de San Juan"|"CIUDAD REAL"|39.3901907|-3.2099636|1|1|0|1|1|1|1|0|0
"01512"|1|"3058"|520|"Paseo de Fabra i Puig"|15|"08030"|"Barcelona"|"BARCELONA"|41.430112|2.1884271|1|0|1|1|1|1|1|0|0
"01513"|1|"3058"|299|"C/ San Pío X"|23|"30840"|"Alhama de Murcia"|"MURCIA"|37.848833|-1.427472|0|0|0|0|0|1|1|0|0
"01514"|1|"3058"|3207|"Mesones"|38|"23400"|"Ubeda"|"JAÉN"|38.0113803|-3.373334|1|1|0|1|1|1|1|0|0
"01515"|1|"3058"|4704|"Socuellamos"|4|"13700"|"Tomelloso"|"CIUDAD REAL"|39.1590072|-3.0208377|1|1|0|1|1|1|1|0|0
"01516"|1|"3058"|6701|"Félix Valverde Lillo"|5|"06800"|"Mérida"|"BADAJOZ"|38.919143|-6.3408054|1|1|0|1|1|1|1|0|0
"01517"|1|"3058"|228|"Av. Fontes"|9|"30700"|"Torrepacheco"|"MURCIA"|37.74215|-0.954542|1|0|1|1|1|1|1|0|0
"01518"|1|"3058"|751|"C/Almedad Principal"|19|"29001"|"Málaga"|"MÁLAGA"|36.71725|-4.42265|1|0|1|1|1|1|1|0|0
"01519"|1|"3058"|960|"Plaza España"|0|"52001"|"Melilla"|"MELILLA"|35.291974|-2.93719|1|0|1|1|1|1|1|0|0
"01520"|1|"3058"|9|"Pl Constitución"|1|"04760"|"Berja"|"ALMERÍA"|36.846238|-2.949539|1|0|1|1|1|1|1|0|0
"01521"|1|"3058"|205|"C/ General Aznar"|4|"30850"|"Totana"|"MURCIA"|37.769422|-1.502304|1|0|0|0|0|1|1|0|0
"01522"|1|"3058"|61|"Ctra. de Nijar"|205|"04120"|"La Cañada"|"ALMERÍA"|36.840383|-2.407135|1|0|1|1|1|1|1|0|0
"01523"|1|"3058"|94|"C/ Poeta Paco Aquino,esq Ctra.Ronda"|0|"04005"|"Almería"|"ALMERÍA"|36.839674|-2.454506|1|0|1|1|1|1|1|0|0
"01524"|1|"3058"|7035|"Pz de España"|2|"46970"|"Alaquas"|"VALENCIA"|39.467665|-0.424273|1|0|0|1|1|1|1|0|0
"01525"|1|"3058"|97|"C/ Puerto Rico"|2|"04700"|"Santo Domingo"|"ALMERÍA"|36.767923|-2.8016492|1|0|1|1|1|1|1|0|0
"01527"|1|"3058"|199|"Calle de los Juegos de Casablanca"|5|"04131"|"Retamar"|"ALMERÍA"|36.8373237|-2.3209087|1|0|0|0|0|1|1|0|0
"01528"|1|"3058"|52|"Ctra. Níjar"|93|"04130"|"El Alquián"|"ALMERÍA"|36.840958|-2.411005|1|0|1|1|1|1|1|0|0
"01529"|1|"3058"|1605|"Bisbe Lorenzana"|6|"17800"|"Olot"|"GIRONA"|42.1809501|2.48984859|1|1|0|1|1|1|1|0|0
"01530"|1|"3118"|2024|"Av. Al Vedat"|3|"46900"|"Torrent"|"VALENCIA"|39.462509|-0.397441|1|0|1|1|1|1|1|0|0
"01531"|1|"3058"|381|"Ctra. de la Palma"|47|"30201"|"Cartagena"|"MURCIA"|37.624556|-0.9972063|1|0|1|1|1|1|1|0|0
"01532"|1|"3058"|65|"C/ Murcia"|86|"04004"|"Almería"|"ALMERÍA"|36.843981|-2.458331|1|0|1|1|1|1|1|0|0
"01533"|1|"3058"|15|"Av. Europa"|124|"04745"|"La Mojonera"|"ALMERÍA"|36.75392|-2.685975|1|0|1|1|1|1|1|0|0
"01534"|1|"3058"|2505|"Pl. Los Luceros"|17|"03004"|"Alicante"|"ALICANTE"|38.345769|-0.490988|1|0|1|1|1|1|1|0|0
"01535"|1|"3058"|291|"C/ El Carmen"|45|"30201"|"Cartagena"|"MURCIA"|37.604542|-0.989885|1|0|0|1|1|1|1|0|0
"01536"|1|"3058"|236|"Av. Miguel de Cervantes"|9|"30009"|"Murcia"|"MURCIA"|37.994835|-1.142149|1|0|0|0|1|1|1|0|0
"01537"|1|"3058"|38|"Ctra. Alicún"|379|"04740"|"El Parador"|"ALMERÍA"|36.807627|-2.598073|1|1|0|1|1|1|1|0|0
"01538"|1|"3058"|5018|"Ctra. de Madrid"|38|"47140"|"Laguna de Duero"|"VALLADOLID"|41.582722|-4.714639|1|0|1|1|1|1|1|0|0
"01541"|1|"3058"|199|"C/ Ferrocarril"|74|"04007"|"Almería"|"ALMERÍA"|36.83433|-2.4512447|1|0|0|0|1|1|1|0|0
"01542"|1|"3058"|308|"C/ Cartagena"|18|"30002"|"Murcia"|"MURCIA"|37.980511|-1.131624|1|0|1|1|1|1|1|0|0
"01543"|1|"3058"|4533|"C/ Teodor Canet"|18|"07400"|"Puerto de Alcudia"|"BALEARES"|39.84094|3.137003|1|1|0|1|1|1|1|0|0
"01544"|1|"3058"|709|"C/ Infante Don Fernando"|43|"29200"|"Antequera"|"MÁLAGA"|37.018933|-4.562523|0|0|0|1|1|1|1|0|0
"01545"|1|"3058"|709|"C/ Infante Don Fernando"|43|"29200"|"Antequera"|"MÁLAGA"|37.018933|-4.562523|1|0|0|0|0|1|1|0|0
"01546"|1|"3058"|23|"Av. Barcelona"|14|"04610"|"Cuevas de Almanzora"|"ALMERÍA"|37.294723|-1.8772739|1|0|1|1|1|1|1|0|0
"01547"|1|"3058"|23|"Av. Barcelona"|14|"04610"|"Cuevas de Almanzora"|"ALMERÍA"|37.294723|-1.877273|1|0|0|0|0|1|1|0|0
"01548"|1|"3058"|2219|"C/ Málaga"|16|"46009"|"Valencia"|"VALENCIA"|39.48475|-0.383054|1|0|1|0|1|1|1|0|0
"01549"|1|"3058"|202|"C/ Juan Carlos I"|0|"30840"|"Alhama de Murcia"|"MURCIA"|37.848716|-1.425699|1|0|1|1|1|1|1|0|0
"01551"|1|"3058"|7001|"Av. Arrabal"|7|"46340"|"Requena"|"VALENCIA"|39.48792|-1.1010352|1|0|0|1|1|1|1|0|0
"01553"|1|"3058"|7001|"Av. Arrabal"|7|"46340"|"Requena"|"VALENCIA"|39.48792|-1.1010352|1|0|1|1|1|1|1|0|0
"01555"|1|"3058"|7002|"Pl. Isabel II"|2|"46390"|"San Antonio de Requena"|"VALENCIA"|39.519958|-1.154181|1|0|1|1|1|1|1|0|0
"01556"|1|"3058"|7076|"C/ Miguel Crespo"|3|"46392"|"Siete Aguas"|"VALENCIA"|39.489878|-1.104899|1|0|0|0|0|1|1|0|0
"01557"|1|"3058"|7004|"Pl. Mayor"|29|"46620"|"Ayora"|"VALENCIA"|39.059804|-1.055177|1|0|1|1|1|1|1|0|0
"01558"|1|"3058"|7004|"C/ Jarral"|8|"46623"|"Jarafuel"|"VALENCIA"|39.139898|-1.073533|1|0|0|0|0|1|1|0|0
"01561"|1|"3058"|7008|"Pl. de la Valle"|15|"46625"|"Cofrentes"|"VALENCIA"|39.22932|-1.062162|0|0|0|0|0|1|1|0|0
"01564"|1|"3058"|7010|"Av. Violeta"|2|"46360"|"Buñol"|"VALENCIA"|39.41661|-0.787404|1|0|1|1|1|1|1|0|0
"01565"|1|"3058"|7011|"C/ Condes de Buñol"|1|"46360"|"Buñol"|"VALENCIA"|39.423918|-0.791444|1|0|0|1|1|1|1|0|0
"01566"|1|"3058"|7010|"C/ La Fuente"|2|"46367"|"Yátova"|"VALENCIA"|39.384428|-0.808902|1|0|0|0|0|1|1|0|0
"01567"|1|"3058"|2199|"María Carbonell"|2|"46380"|"Cheste"|"VALENCIA"|39.494326|-0.684351|0|0|0|0|0|1|1|0|0
"01569"|1|"3058"|7014|"C/ Teatro"|1|"02200"|"Casas-Ibáñez"|"ALBACETE"|39.288293|-1.469604|1|0|1|1|1|1|1|0|0
"01570"|1|"3058"|7015|"C/ Cesáreo Marco Yagüe"|4|"46300"|"Utiel"|"VALENCIA"|39.568014|-1.20417|1|1|0|0|0|1|1|0|0
"01571"|1|"3058"|7017|"Pl. Constitución"|10|"46310"|"Venta del Moro"|"VALENCIA"|39.483267|-1.356666|1|0|0|0|0|1|1|0|0
"01572"|1|"3058"|7081|"Pl. Tejeda"|9|"16313"|"Talayuelas"|"CUENCA"|39.849148|-1.283351|1|0|0|0|1|1|1|0|0
"01574"|1|"3058"|7083|"C/ Charco"|1|"46317"|"Utiel"|"VALENCIA"|39.536192|-1.440888|0|0|0|0|0|1|1|0|0
"01575"|1|"3058"|7022|"Pl. Salvador Allende"|3|"02640"|"Almansa"|"ALBACETE"|38.867873|-1.096176|1|0|1|0|1|1|1|0|0
"01576"|1|"3058"|7024|"Av. Marqués de Sotelo"|11|"46002"|"Valencia"|"VALENCIA"|39.468098|-0.377031|1|0|1|1|1|1|1|0|0
"01577"|1|"3058"|7025|"C/ 25 de abril"|20|"46113"|"Moncada"|"VALENCIA"|39.544877|-0.396129|1|0|1|1|1|1|1|0|0
"01579"|1|"3058"|7027|"C/ Mayor"|39|"46190"|"Riba-Roja de Turia"|"VALENCIA"|39.546139|-0.567899|1|0|1|1|1|1|1|0|0
"01582"|1|"3058"|7031|"C/ Convento"|13|"46111"|"Rocafort"|"VALENCIA"|39.529806|-0.410212|1|0|1|1|1|1|1|0|0
"01585"|1|"3058"|2199|"Plz Convent"|6|"46220"|"Carlet"|"VALENCIA"|39.226328|-0.519395|0|0|0|0|0|1|1|0|0
"01587"|1|"3058"|7035|"Pl. de España"|2|"46970"|"Alaquas"|"VALENCIA"|39.457101|-0.461481|1|0|1|1|1|1|1|0|0
"01590"|1|"3058"|7039|"C/ Cura"|18|"16220"|"Quintanar del Rey"|"CUENCA"|39.343644|-1.9282|1|0|0|0|0|1|1|0|0
"01591"|1|"3058"|7040|"C/ Iglesia"|13|"02270"|"Villamalea"|"ALBACETE"|39.361846|-1.598847|1|0|0|0|0|1|1|0|0
"01592"|1|"3058"|7042|"C/ Consolacion"|4|"16235"|"Iniesta"|"CUENCA"|39.444438|-1.749723|1|0|1|1|1|1|1|0|0
"01593"|1|"3058"|7097|"Pl. Ayuntamiento"|1|"46163"|"Marines"|"VALENCIA"|39.674996|-0.561578|1|1|0|1|1|1|1|0|0
"01594"|1|"3058"|7097|"C/ La Pau"|3|"46181"|"Benisano"|"VALENCIA"|39.613569|-0.575416|1|0|1|1|1|1|1|0|0
"01596"|1|"3058"|7046|"C/ Cura Escandell"|10|"46119"|"Náquera"|"VALENCIA"|39.658706|-0.425358|1|0|1|1|1|1|1|0|0
"01597"|1|"3058"|7046|"Pl. Constitución"|9|"46118"|"Serra"|"VALENCIA"|39.685515|-0.429846|1|0|1|1|1|1|1|0|0
"01598"|1|"3058"|7081|"Paseo del Prado"|30|"16320"|"Talayuelas"|"CUENCA"|39.741052|-1.32617|0|0|0|0|0|1|1|0|0
"01599"|1|"3058"|7049|"C/ Poeta Llorente"|48|"46185"|"La Pobla de Vallbona"|"VALENCIA"|39.591804|-0.5516741|1|0|1|1|1|1|1|0|0
"01603"|1|"3058"|7054|"C/ Camí Real"|48|"46815"|"La Llosa de Ranes"|"VALENCIA"|39.017891|-0.533398|1|0|1|1|1|1|1|0|0
"01610"|1|"3058"|2199|"C. Sant Rafel"|20|"03780"|"Pego"|"ALICANTE"|38.841048|-0.114117|0|0|0|0|0|1|1|0|0
"01611"|1|"3058"|2171|"C/ Juan Garcés"|27|"46614"|"Favara"|"VALENCIA"|39.126914|-0.289968|1|0|0|0|0|1|1|0|0
"01612"|1|"3058"|2199|"Mayor"|79|"46638"|"Godelleta"|"VALENCIA"|39.425338|-0.684774|0|0|0|0|0|1|1|0|0
"01613"|1|"3058"|7064|"Pl. España"|14|"46638"|"Godelleta"|"VALENCIA"|39.421694|-0.687242|1|0|1|1|1|1|1|0|0
"01614"|1|"3058"|7065|"C/ San Vicente"|31|"46692"|"Montesa"|"VALENCIA"|38.949569|-0.651511|1|0|0|0|0|1|1|0|0
"01615"|1|"3058"|7068|"Av. Valencia"|122|"46140"|"Adémuz"|"VALENCIA"|40.063983|-1.285309|0|0|0|0|0|1|1|0|0
"01618"|1|"3058"|7042|"C/ Jesús Casanova"|22|"16230"|"Villanueva de la Jara"|"CUENCA"|39.439727|-1.952757|0|0|0|0|0|1|1|0|0
"01619"|1|"3058"|7073|"C/ Larga"|22|"46177"|"Tuéjar"|"VALENCIA"|39.764442|-1.040575|0|0|0|0|0|1|1|0|0
"01620"|1|"3058"|7074|"C/ Molino"|10|"49183"|"Eliana (L )"|"VALENCIA"|39.566362|-0.531252|1|0|1|1|1|1|1|0|0
"01621"|1|"3058"|7075|"C/ Calvario"|3|"46138"|"Rafelbuñol"|"VALENCIA"|39.589162|-0.334933|1|0|1|1|1|1|1|0|0
"01622"|1|"3058"|7076|"Av. de la Estación"|1|"46340"|"Requena"|"VALENCIA"|39.48977|-1.104964|1|0|0|0|1|1|1|0|0
"01624"|1|"3058"|7078|"C/ Ample"|37|"46110"|"Godella"|"VALENCIA"|39.517394|-0.411299|1|0|1|1|1|1|1|0|0
"01626"|1|"3058"|7080|"C/ Constitución"|50|"46340"|"Requena"|"VALENCIA"|39.487594|-1.096425|1|0|0|0|0|1|1|0|0
"01627"|1|"3058"|7081|"C/ Román Ochando"|15|"46320"|"Sinarcas"|"VALENCIA"|39.733615|-1.230095|1|0|0|0|0|1|1|0|0
"01629"|1|"3058"|7083|"C/ Antonio Maura"|6|"46300"|"Utiel"|"VALENCIA"|39.567192|-1.207496|1|0|1|1|1|1|1|0|0
"01632"|1|"3058"|7015|"Ctra. Madrid-Valencia"|55|"46315"|"Utiel"|"VALENCIA"|39.558341|-1.279725|1|0|0|0|1|1|1|0|0
"01633"|1|"3058"|7086|"C/ La Virgen"|25|"02230"|"Madrigueras"|"ALBACETE"|39.236099|-1.800914|1|0|0|0|0|1|1|0|0
"01637"|1|"3058"|7015|"Av. Purísima"|19|"46330"|"Camporrobles"|"VALENCIA"|39.645799|-1.40072|0|0|0|0|0|1|1|0|0
"01638"|1|"3058"|7200|"Pl. Mayor"|10|"46171"|"Casinos"|"VALENCIA"|39.700586|-0.707701|1|0|1|1|1|1|1|0|0
"01639"|1|"3058"|7220|"C/ Padre Salvador"|11|"46135"|"Albalat dels Sorells"|"VALENCIA"|39.545482|-0.347707|1|0|1|1|1|1|1|0|0
"01643"|1|"3058"|7024|"Av. Marqués de Sotelo"|11|"46002"|"Valencia"|"VALENCIA"|39.468098|-0.377031|1|0|0|0|0|1|1|0|0
"01644"|1|"3058"|7024|"Av. Marqués de Sotelo"|11|"46002"|"Valencia"|"VALENCIA"|39.468098|-0.377031|0|0|0|0|0|1|1|0|0
"01647"|1|"3058"|7093|"Pl. Hispanidad"|1|"16004"|"Cuenca"|"CUENCA"|40.071938|-2.136078|1|0|0|0|0|1|1|0|0
"01648"|1|"3058"|7097|"C/ Miguel Abriat Canto"|11|"46160"|"Llíria"|"VALENCIA"|39.628249|-0.598583|1|0|1|1|1|1|1|0|0
"01649"|1|"3058"|202|"C/ Juan Carlos I"|0|"30840"|"Alhama de Murcia"|"MURCIA"|37.848716|-1.425699|0|0|0|1|1|1|1|0|0
"01650"|1|"3058"|3508|"Cl Carrera"|41|"41640"|"Osuna"|"SEVILLA"|37.2386115|-5.1038009|1|1|0|1|1|1|1|0|0
"01651"|1|"3058"|2142|"Vicari Ricardo Belenguer"|6|"46120"|"Alboraya"|"VALENCIA"|39.49831|-0.35164|1|0|0|0|0|1|1|0|0
"01652"|1|"3058"|872|"Boulevard Louis Pasteur"|0|"29010"|"Málaga"|"MÁLAGA"|36.717615|-4.463603|1|0|0|1|1|1|1|0|0
"01653"|1|"3058"|228|"Av. Fontes"|9|"30700"|"Torrepacheco"|"MURCIA"|37.74215|-0.954542|1|0|0|1|1|1|1|0|0
"01654"|1|"3160"|7489|"Calle Cova Santa"|11|"12526"|"Vilavella (La)"|"CASTELLÓN"|39.858842|-0.184489|1|0|1|1|1|1|1|0|0
"01655"|1|"3058"|207|"C/ Pino de la Murta"|0|"30180"|"Bullas"|"MURCIA"|38.049761|-1.669163|1|0|1|1|1|1|1|0|0
"01656"|1|"3058"|87|"Av. Boulevard Ciudad de Vícar"|1393|"04738"|"La Puebla de Vícar"|"ALMERÍA"|38.800568|-2.647845|1|0|1|1|1|1|1|0|0
"01657"|1|"3058"|89|"Av. Boulevard Ciudad de Vícar"|630|"04738"|"La Gangosa"|"ALMERÍA"|36.805368|-2.620196|1|0|0|0|0|1|1|0|0
"01658"|1|"3058"|2013|"C/ Mayor"|76|"46940"|"Manises"|"VALENCIA"|39.492897|-0.460868|1|0|0|0|0|1|1|0|0
"01659"|1|"3058"|288|"Ctra. Barrio Peral"|44|"30300"|"Cartagena"|"MURCIA"|37.621907|-0.988768|1|0|0|0|0|1|1|0|0
"01660"|1|"3058"|54|"Mayor, esq. C7 PI y Margall"|122|"04630"|"Garrucha"|"ALMERÍA"|37.18092|-1.82208|1|0|0|0|0|1|1|0|0
"01661"|1|"3058"|7413|"Avda. de la Rambla"|24|"12182"|"Sierra-Engarceran"|"CASTELLÓN"|40.2287569|-0.0797211|1|0|0|0|0|1|1|0|0
"01662"|1|"3058"|746|"C/ José Calderón"|139|"29590"|"Campanillas"|"MÁLAGA"|36.726944|-4.543532|1|0|1|1|1|1|1|0|0
"01663"|1|"3058"|746|"C/ José Calderón"|139|"29590"|"Campanillas"|"MÁLAGA"|36.726944|-4.543532|1|0|1|1|1|1|1|0|0
"01664"|1|"3058"|785|"Av. Velázquez"|61|"29004"|"Málaga"|"MÁLAGA"|36.695763|-4.450085|1|0|1|1|1|1|1|0|0
"01665"|1|"3058"|811|"C/ Emilio Thuiller"|80|"29014"|"Málaga"|"MÁLAGA"|36.745966|-4.421723|1|0|0|1|1|1|1|0|0
"01666"|1|"3058"|780|"Alameda de Capuchinos"|73|"29013"|"Málaga"|"MÁLAGA"|36.732246|-4.417248|1|0|0|0|0|1|1|0|0
"01667"|1|"3058"|232|"C/ General Valcárcel"|3|"30170"|"Mula"|"MURCIA"|38.03969|-1.488851|1|0|1|1|1|1|1|0|0
"01669"|1|"3058"|254|"C/ Mayor"|65|"30360"|"La Unión"|"MURCIA"|37.61735|-0.87734|1|0|1|1|1|1|1|0|0
"01670"|1|"3058"|7300|"C/ Gasset"|1|"12001"|"Castellón de la Plana"|"CASTELLÓN"|39.984355|-0.03828|1|0|1|1|1|1|1|0|0
"01671"|1|"3058"|812|"C/ Gerald Brenan"|34|"29120"|"Alhaurín El Grande"|"MÁLAGA"|36.643848|-4.682912|1|0|1|1|1|1|1|0|0
"01672"|1|"3058"|75|"Avda. Del Mar esq. Nicolas Salmerón"|0|"04002"|"Almería"|"ALMERÍA"|36.83761|-2.475942|1|0|1|1|1|1|1|0|0
"01673"|1|"3058"|851|"C/ Ingeniero de la Torre Acosta"|23|"29007"|"Málaga"|"MÁLAGA"|36.720636|-4.439799|1|0|1|1|1|1|1|0|0
"01675"|1|"3058"|98|"C/ Artés de Arcos"|15|"04004"|"Almería"|"ALMERÍA"|36.835473|-2.458772|1|0|0|1|1|1|1|0|0
"01676"|1|"3058"|1|"C/ Natalio Rivas"|19|"04770"|"Adra"|"ALMERÍA"|36.748891|-3.014824|1|0|1|1|1|1|1|0|0
"01677"|1|"3058"|12|"Camino de Vera"|2|"04110"|"Campohermoso"|"ALMERÍA"|36.93807|-2.131509|1|0|1|1|1|1|1|0|0
"01678"|1|"3058"|12|"Camino de Vera"|2|"04110"|"Campohermoso"|"ALMERÍA"|36.93807|-2.131509|1|0|0|0|0|1|1|0|0
"01679"|1|"3058"|123|"C/ Natalio Rivas"|87|"04770"|"Adra"|"ALMERÍA"|36.748112|-3.018744|1|0|1|1|1|1|1|0|0
"01680"|1|"3058"|270|"Pl. de España"|8|"30740"|"San Pedro del Pinatar"|"MURCIA"|37.834502|-0.791829|1|0|1|1|1|1|1|0|0
"01681"|1|"3058"|260|"Avda. Europa esq. Calle Paso Encarnado"|0|"30800"|"Lorca"|"MURCIA"|37.68109|-1.688667|1|0|1|1|1|1|1|0|0
"01682"|1|"3058"|260|"Avda. Europa esq. Calle Paso Encarnado"|0|"30800"|"Lorca"|"MURCIA"|37.68109|-1.688667|1|0|0|1|1|1|1|0|0
"01683"|1|"3058"|260|"Avda. Europa esq. Calle Paso Encarnado"|0|"30800"|"Lorca"|"MURCIA"|37.68109|-1.688667|1|0|1|1|1|1|1|0|0
"01684"|1|"3058"|302|"Gran Vía"|85|"30530"|"Cieza"|"MURCIA"|38.239989|-1.419543|1|0|1|1|1|1|1|0|0
"01685"|1|"3058"|203|"C/ La Vía"|123|"30870"|"Mazarrón"|"MURCIA"|37.600105|-1.311954|1|0|1|1|1|1|1|0|0
"01686"|1|"3058"|203|"C/ La Vía"|123|"30870"|"Mazarrón"|"MURCIA"|37.600105|-1.311954|0|0|0|1|1|1|1|0|0
"01687"|1|"3058"|215|"Ctra. Lorca"|1|"30880"|"Águilas"|"MURCIA"|37.4087377|-1.5868676|1|0|0|1|1|1|1|0|0
"01688"|1|"3058"|220|"C/ Alfonso XIII,esq.C/Tirso de Molina"|0|"30203"|"Cartagena"|"MURCIA"|37.6067814|-0.9764436|1|0|1|1|1|1|1|0|0
"01690"|1|"3058"|203|"C/ La Vía"|123|"30870"|"Mazarrón"|"MURCIA"|37.600105|-1.311954|1|0|0|1|1|1|1|0|0
"01691"|1|"3058"|175|"Av. Carlos III"|531|"04720"|"Aguadulce"|"ALMERÍA"|36.815409|-2.569234|1|0|1|1|1|1|1|0|0
"01692"|1|"3058"|57|"Crta. de la Mojonera"|154|"04716"|"Las Norias de Daza"|"ALMERÍA"|36.759319|-2.753055|1|0|1|1|1|1|1|0|0
"01693"|1|"3058"|57|"Crta. de la Mojonera"|154|"04716"|"Las Norias de Daza"|"ALMERÍA"|36.759319|-2.753055|1|0|0|0|0|1|1|0|0
"01695"|1|"3058"|17|"Pl. Cura Valera"|14|"04600"|"Huércal Overa"|"ALMERÍA"|37.389539|-1.943107|1|0|0|0|0|1|1|0|0
"01696"|1|"3058"|10|"Rambla Obispo Orberá"|55|"04001"|"Almería"|"ALMERÍA"|36.839429|-2.459929|1|0|1|1|1|1|1|0|0
"01697"|1|"3058"|752|"Av. Juan Sebastián Elcano"|184|"29017"|"Málaga"|"MÁLAGA"|36.7220684|-4.3651445|1|0|0|1|1|1|1|0|0
"01698"|1|"3058"|182|"Av. Las Negras"|91|"04110"|"Campohermoso"|"ALMERÍA"|36.936768|-2.131306|1|0|1|1|1|1|1|0|0
"01699"|1|"3058"|255|"C/ Mayor"|176|"30360"|"Alcantarilla"|"MURCIA"|37.967666|-1.2174262|1|0|1|1|1|1|1|0|0
"01700"|1|"3058"|182|"Av. Las Negras"|91|"04110"|"Campohermoso"|"ALMERÍA"|36.936768|-2.131306|1|0|0|1|1|1|1|0|0
"01701"|1|"3058"|262|"Pl. Juan XXIII,esq.C/Juan de la Cierva"|0|"30850"|"Totana"|"MURCIA"|37.771037|-1.4989578|1|0|1|1|1|1|1|0|0
"01702"|1|"3058"|799|"C/ Dolores Ibárruri,esq. Gl.de Andalucía"|0|"29700"|"Vélez Málaga"|"MÁLAGA"|36.77387|-4.10367|1|0|1|1|1|1|1|0|0
"01703"|1|"3058"|187|"Av. Reino de España"|19|"04740"|"Roquetas de Mar"|"ALMERÍA"|36.775253|-2.609017|1|0|0|1|1|1|1|0|0
"01704"|1|"3058"|187|"Av. Reino de España"|19|"04740"|"Roquetas de Mar"|"ALMERÍA"|36.775253|-2.609017|1|0|1|1|1|1|1|0|0
"01705"|1|"3058"|7105|"Pl.  Del Reino"|11|"46600"|"Alzira"|"VALENCIA"|39.149653|-4.439295|1|0|0|0|0|1|1|0|0
"01706"|1|"3058"|7013|"Paseo Argentina"|1|"46370"|"Chiva"|"VALENCIA"|39.472743|-0.718717|1|0|1|1|1|1|1|0|0
"01707"|1|"3058"|7013|"Paseo Argentina"|1|"46370"|"Chiva"|"VALENCIA"|39.472743|-0.718717|1|0|1|1|1|1|1|0|0
"01708"|1|"3058"|292|"Av. Estación"|22|"30500"|"Molina de Segura"|"MURCIA"|38.053023|-1.214881|1|0|1|1|1|1|1|0|0
"01709"|1|"3058"|292|"Av. Estación"|22|"30500"|"Molina de Segura"|"MURCIA"|38.053023|-1.214881|1|0|1|1|1|1|1|0|0
"01710"|1|"3058"|129|"C/Orquídea,esq. Pl.Campillo del Moro"|0|"04720"|"Aguadulce"|"ALMERÍA"|36.80916|-2.58067|1|0|0|1|1|1|1|0|0
"01711"|1|"3058"|129|"C/Orquídea,esq. Pl.Campillo del Moro"|0|"04720"|"Aguadulce"|"ALMERÍA"|36.80916|-2.58067|1|0|0|0|0|1|1|0|0
"01713"|1|"3058"|117|"C/ San Isidro"|125|"04700"|"El Ejido"|"ALMERÍA"|36.778254|-2.817905|1|0|1|1|1|1|1|0|0
"01714"|1|"3058"|117|"C/ San Isidro"|125|"04700"|"El Ejido"|"ALMERÍA"|36.778254|-2.817905|1|0|0|0|0|1|1|0|0
"01715"|1|"3058"|5199|"Ctra. N. I, Salida"|385|"01207"|"San Román"|"ÁLAVA"|42.8639002|-2.3206927|0|0|0|1|1|1|1|0|0
"01716"|1|"3058"|116|"C/ Lentisco"|40|"04007"|"Almería"|"ALMERÍA"|36.835462|-2.444158|1|0|1|1|1|1|1|0|0
"01717"|1|"3058"|2257|"C/ Benicanena"|53|"46700"|"Gandía"|"VALENCIA"|38.965546|-0.190453|1|0|0|1|1|1|1|0|0
"01718"|1|"3058"|717|"C/ Manuel García González"|14|"29100"|"Coín"|"MÁLAGA"|36.660484|-4.756764|1|0|1|1|1|1|1|0|0
"01719"|1|"3058"|79|"Av. Madrid"|21|"04007"|"Almería"|"ALMERÍA"|36.832743|-2.4492487|1|0|0|0|0|1|1|0|0
"01720"|1|"3058"|79|"Av. Madrid"|21|"04007"|"Almería"|"ALMERÍA"|36.832743|-2.4492487|1|0|1|1|1|1|1|0|0
"01721"|1|"3058"|92|"Av. Pablo Iglesias,esq.C/San Diego"|0|"04003"|"Almería"|"ALMERÍA"|36.845489|-2.464529|1|0|1|1|1|1|1|0|0
"01722"|1|"3058"|1320|"amalia Alayon"|20|"38650"|"Los Cristianos"|"TENERIFE"|28.0524722|-16.715182|0|0|1|1|1|1|1|0|0
"01724"|1|"3058"|90|"Pl. Párroco José Jiménez"|7|"04700"|"El Ejido"|"ALMERÍA"|36.774949|-2.814652|1|0|1|1|1|1|1|0|0
"01725"|1|"3058"|90|"Pl. Párroco José Jiménez"|7|"04700"|"El Ejido"|"ALMERÍA"|36.774949|-2.814652|1|1|0|1|1|1|1|0|0
"01726"|1|"3058"|782|"C/ Terraza"|117|"29680"|"Estepona"|"MÁLAGA"|36.430683|-5.148951|1|0|1|1|1|1|1|0|0
"01728"|1|"3058"|127|"Paseo de Almería"|25|"04001"|"Almería"|"ALMERÍA"|36.8394701|-2.4633878|1|0|1|1|1|1|1|0|0
"01729"|1|"3058"|116|"C/ Lentisco"|40|"04007"|"Almería"|"ALMERÍA"|36.835462|-2.444158|1|0|0|0|0|1|1|0|0
"01730"|1|"3058"|127|"Paseo de Almería"|25|"04001"|"Almería"|"ALMERÍA"|36.8394701|-2.4633878|1|0|0|1|1|1|1|0|0
"01733"|1|"3058"|4203|"Cortes de Aragon"|19|"50300"|"Calatayud"|"ZARAGOZA"|41.3521975|-1.640932|1|1|0|1|1|1|1|0|0
"01734"|1|"3058"|67|"Av. Constitución, esq.C/Jardín"|144|"04117"|"San Isidro"|"ALMERÍA"|36.908615|-2.17364|1|1|0|1|1|1|1|0|0
"01736"|1|"3058"|279|"C/ Virgen del Rosario"|6|"30564"|"Lorquí"|"MURCIA"|38.081769|-1.255145|1|0|1|1|1|1|1|0|0
"01737"|1|"3058"|243|"Ronda de Garay"|10|"30003"|"Murcia"|"MURCIA"|37.984251|-1.122645|1|0|1|1|1|1|1|0|0
"01738"|1|"3058"|125|"C/ Del Mar"|33|"04620"|"Vera"|"ALMERÍA"|37.247548|-1.86641|1|1|0|1|1|1|1|0|0
"01739"|1|"3058"|85|"C/ Santiago"|44|"04006"|"Almería"|"ALMERÍA"|36.8415155|-2.449505|1|0|1|1|1|1|1|0|0
"01740"|1|"3058"|7001|"Av. Arrabal"|7|"46340"|"Requena"|"VALENCIA"|39.48792|-1.101035|1|0|1|1|1|1|1|0|0
"01741"|1|"3058"|280|"C/ Carmen Conde"|43|"30204"|"Cartagena"|"MURCIA"|37.614996|-0.991119|1|0|1|1|1|1|1|0|0
"01742"|1|"3058"|5057|"Av. de la Constitución"|5|"47400"|"Medina del Campo"|"VALLADOLID"|41.314914|-4.913823|1|0|0|0|0|1|1|0|0
"01743"|1|"3058"|146|"C/ Esmeralda"|1|"04230"|"Huércal de Almería"|"ALMERÍA"|36.887481|-2.444973|1|0|1|1|1|1|1|0|0
"01744"|1|"3058"|50|"Boulevard Ciudad de Vícar"|960|"04738"|"Vícar"|"ALMERÍA"|36.8034|-2.631966|1|0|1|1|1|1|1|0|0
"01747"|1|"3058"|5902|"Manuel Pedregal, esq. Fray Ceferino"|1|"33001"|"Oviedo"|"ASTURIAS"|43.366207|-5.8516806|1|0|1|1|1|1|1|0|0
"01748"|1|"3058"|49|"Iglesia de cabo de Gata"|31|"04150"|"Cabo de Gata"|"ALMERÍA"|36.7803715|-2.2433665|1|1|0|1|1|1|1|0|0
"01750"|1|"3058"|6124|"Av. Ansite"|112|"35118"|"Cruce de Arinaga"|"LAS PALMAS"|27.8764111|-15.426004|0|1|0|1|1|1|1|0|0
"01751"|1|"3058"|96|"Pl. Colonización"|21|"04716"|"San Agustín"|"ALMERÍA"|36.713143|-2.694652|1|0|1|1|1|1|1|0|0
"01752"|1|"3058"|35|"Bv. Sta María del Águila,esq. C/Valencia"|0|"04710"|"Santa María del Águila"|"ALMERÍA"|36.779884|-2.77498|1|0|1|1|1|1|1|0|0
"01753"|1|"3058"|6|"Av. Andalucía"|70|"04640"|"Pulpí"|"ALMERÍA"|37.411775|-1.7449951|1|0|1|1|1|1|1|0|0
"01754"|1|"3058"|85|"C/ Santiago"|44|"04006"|"Almería"|"ALMERÍA"|36.8415155|-2.449505|1|0|1|1|1|1|1|0|0
"01755"|1|"3058"|299|"C/ Amatista"|6|"30205"|"Cartagena"|"MURCIA"|37.6212773|-0.9994244|1|0|1|1|1|1|1|0|0
"01756"|1|"3058"|88|"Av. Madre María Aznar"|181|"04009"|"Almería"|"ALMERÍA"|36.8594266|-2.4441382|1|0|1|1|1|1|1|0|0
"01757"|1|"3058"|2011|"Av. Camí Nou"|47|"46950"|"Xirivella"|"VALENCIA"|39.465633|-0.43066|1|0|1|1|1|1|1|0|0
"01758"|1|"3058"|34|"Paseo de la Rambla"|17|"04639"|"Turre"|"ALMERÍA"|37.152225|-1.89332|1|0|1|1|1|1|1|0|0
"01759"|1|"3058"|393|"Pl. España"|1|"30880"|"Águilas"|"MURCIA"|37.404255|-1.5813977|1|0|1|1|1|1|1|0|0
"01761"|1|"3058"|76|"Ctra. Granada"|187|"04008"|"Almería"|"ALMERÍA"|36.847609|-2.457519|1|0|1|1|1|1|1|0|0
"01762"|1|"3058"|41|"C/ La Loma"|1|"04712"|"Balerma"|"ALMERÍA"|36.731345|-2.88812|1|0|1|1|1|1|1|0|0
"01763"|1|"3058"|8|"C/ Iglesia"|4|"04750"|"Dalías"|"ALMERÍA"|36.820418|-2.870783|1|0|1|1|1|1|1|0|0
"01764"|1|"3058"|121|"Av. Mediterráneo"|250|"04006"|"Almería"|"ALMERÍA"|36.843028|-2.447099|1|0|0|1|1|1|1|0|0
"01765"|1|"3058"|286|"Paseo Duques de Lugo"|5|"30009"|"Murcia"|"MURCIA"|37.998447|-1.147535|1|1|0|0|1|1|1|0|0
"01766"|1|"3058"|2214|"Av. de la Hispanidad"|23|"46520"|"Sagunto"|"VALENCIA"|39.666912|-0.234003|1|0|1|1|1|1|1|0|0
"01767"|1|"3058"|73|"Ctra. Níjar"|299|"04009"|"Almería"|"ALMERÍA"|36.845898|-2.4401363|1|0|1|1|1|1|1|0|0
"01768"|1|"3058"|157|"Av. Mediterráneo, esq.C/Costa Almería"|0|"04009"|"Almería"|"ALMERÍA"|36.854019|-2.4457531|1|0|1|1|1|1|1|0|0
"01769"|1|"3058"|91|"Pl. San Francisco"|5|"04800"|"Albox"|"ALMERÍA"|37.387941|-2.140789|1|0|1|1|1|1|1|0|0
"01770"|1|"3058"|5080|"Mariano Mateo"|41|"47820"|"Villabragima"|"VALLADOLID"|41.8227892|-5.1136483|1|0|1|1|1|1|1|0|0
"01771"|1|"3058"|16|"Pl. del Pueblo"|3|"04200"|"Tabernas"|"ALMERÍA"|37.049727|-2.392625|1|0|1|1|1|1|1|0|0
"01772"|1|"3058"|2|"Av. Pío XII"|4|"04800"|"Albox"|"ALMERÍA"|37.387805|-2.145894|1|0|1|1|1|1|1|0|0
"01773"|1|"3058"|2|"Av. Pío XII"|4|"04800"|"Albox"|"ALMERÍA"|37.387805|-2.145894|1|0|1|1|1|1|1|0|0
"01774"|1|"3058"|288|"Ctra. Barrio Peral"|44|"30300"|"Cartagena"|"MURCIA"|37.621907|-0.9887685|1|0|1|1|1|1|1|0|0
"01775"|1|"3058"|95|"C/ Real"|2|"04240"|"Viator"|"ALMERÍA"|36.889358|-2.426433|1|0|1|1|1|1|1|0|0
"01776"|1|"3058"|76|"Ctra. Granada"|187|"04008"|"Almería"|"ALMERÍA"|36.847609|-2.457519|1|0|1|1|1|1|1|0|0
"01777"|1|"3058"|191|"C/ Sierra Cazorla"|0|"04240"|"Viator"|"ALMERÍA"|36.884538|-2.419578|1|0|1|1|1|1|1|0|0
"01778"|1|"3058"|201|"C/ Príncipe Alfonso,esq.C/Alporchones"|0|"30800"|"Lorca"|"MURCIA"|37.673705|-1.6987074|1|0|1|1|1|1|1|0|0
"01779"|1|"3058"|289|"C/ Nueva San Antón"|0|"30009"|"Murcia"|"MURCIA"|37.989987|-1.1416407|1|0|1|1|1|1|1|0|0
"01780"|1|"3058"|25|"C/ Purísima"|5|"04820"|"Vélez Rubio"|"ALMERÍA"|37.647878|-2.073183|1|0|1|1|1|1|1|0|0
"01781"|1|"3058"|25|"C/ Purísima"|5|"04820"|"Vélez Rubio"|"ALMERÍA"|37.647878|-2.073183|1|0|1|1|1|1|1|0|0
"01782"|1|"3058"|305|"Av. Juan Carlos I"|70|"30800"|"Lorca"|"MURCIA"|37.676374|-1.694738|1|0|0|1|1|1|1|0|0
"01783"|1|"3058"|5213|"Pz.Calvo Sotelo"|22|"34300"|"Paredes de Nava"|"PALENCIA"|42.1523793|-4.6931991|1|1|0|1|1|1|1|0|0
"01785"|1|"3058"|7049|"C/ Poeta Llorente"|48|"46185"|"La Pobla de Vallbona"|"VALENCIA"|39.591804|-0.551674|1|0|1|1|1|1|1|0|0
"01786"|1|"3058"|29|"C/ Huertos"|16|"04867"|"Macael"|"ALMERÍA"|37.33235|-2.305402|1|0|0|1|1|1|1|0|0
"01787"|1|"3058"|126|"Av. Mediterráneo (Rambla Campos)"|0|"04638"|"Mojácar"|"ALMERÍA"|37.134388|-1.830275|1|0|1|1|1|1|1|0|0
"01788"|1|"3058"|113|"Av. Guillermo Reina"|29|"04600"|"Huércal Overa"|"ALMERÍA"|37.392553|-1.9445792|1|0|1|1|1|1|1|0|0
"01789"|1|"3058"|714|"Av. Andalucía"|26|"29580"|"Estación de Cártama"|"MÁLAGA"|36.736568|-4.609599|1|0|1|1|1|1|1|0|0
"01790"|1|"3058"|40|"Pl. Constitución"|15|"04740"|"Roquetas de Mar"|"ALMERÍA"|36.764647|-2.61481|1|0|1|1|1|1|1|0|0
"01791"|1|"3058"|40|"Pl. Constitución"|15|"04740"|"Roquetas de Mar"|"ALMERÍA"|36.76464|-2.61481|1|0|1|1|1|1|1|0|0
"01792"|1|"3058"|5034|"Plaza Mayor"|6|"47620"|"Villanubla"|"VALLADOLID"|41.69888|-4.8425099|1|0|0|0|1|1|1|0|0
"01793"|1|"3058"|2016|"C/ Leonor Jovani"|15|"46020"|"Valencia"|"VALENCIA"|39.485551|-0.360617|1|0|1|1|1|1|1|0|0
"01795"|1|"3058"|2149|"C/ dels Trencalls"|4|"46540"|"Puig"|"VALENCIA"|39.589096|-0.304838|1|0|1|1|1|1|1|0|0
"01796"|1|"3058"|7304|"C/ Moncada"|14|"12005"|"Castellón de la Plana"|"CASTELLÓN"|39.979986|-0.0355335|1|0|1|1|1|1|1|0|0
"01797"|1|"3058"|2177|"C/ Cronista Chabret"|26|"46500"|"Sagunto"|"VALENCIA"|39.680165|-0.278648|1|0|1|1|1|1|1|0|0
"01798"|1|"3058"|2177|"C/ Cronista Chabret"|26|"46500"|"Sagunto"|"VALENCIA"|39.680165|-0.278648|1|0|1|1|1|1|1|0|0
"01800"|1|"3058"|24|"C/ Mayor"|5|"04620"|"Vera"|"ALMERÍA"|37.247445|-1.868995|1|0|1|1|1|1|1|0|0
"01801"|1|"3058"|71|"C/ Sevilla"|1|"04410"|"Benahadux"|"ALMERÍA"|36.926327|-2.460144|1|0|1|1|1|1|1|0|0
"01802"|1|"3058"|77|"Loma La Mezquita"|69|"04700"|"El Ejido"|"ALMERÍA"|36.768585|-2.820819|1|0|1|1|1|1|1|0|0
"01803"|1|"3058"|77|"Loma La Mezquita"|69|"04700"|"El Ejido"|"ALMERÍA"|36.768585|-2.820819|1|0|0|1|1|1|1|0|0
"01804"|1|"3058"|2016|"C/ Leonor Jovani"|15|"46020"|"Valencia"|"VALENCIA"|39.485551|-0.360617|1|0|1|1|1|1|1|0|0
"01805"|1|"3058"|25|"C/ Purísima"|5|"04820"|"Vélez Rubio"|"ALMERÍA"|37.647878|-2.073183|1|0|0|1|1|1|1|0|0
"01806"|1|"3058"|2323|"C/ Les Alfabegues"|9|"46117"|"Bétera"|"VALENCIA"|39.594254|-0.458068|1|0|1|1|1|1|1|0|0
"01807"|1|"3058"|100|"Av. Almanzora"|21|"04860"|"Olula del Río"|"ALMERÍA"|37.355326|-2.295778|1|0|1|1|1|1|1|0|0
"01808"|1|"3058"|33|"C/ Javier Verdejo"|22|"04009"|"Almería"|"ALMERÍA"|36.849144|-2.44996|1|0|1|1|1|1|1|0|0
"01809"|1|"3058"|46|"C/ Villaespesa"|23|"04470"|"Laujar de Andarax"|"ALMERÍA"|36.993727|-2.891667|1|0|1|1|1|1|1|0|0
"01810"|1|"3045"|2662|"Av. Benidorm"|1|"03590"|"Altea"|"ALICANTE"|38.601664|-0.055532|1|0|1|1|1|1|1|0|0
"01811"|1|"3058"|133|"Ctra. de Almería"|27|"04770"|"La Curva"|"ALMERÍA"|36.758742|-2.978711|1|0|1|1|1|1|1|0|0
"01812"|1|"3058"|731|"Av. Mediterráneo"|72|"29730"|"Rincón de la Victoria"|"MÁLAGA"|36.715409|-4.287983|1|0|1|1|1|1|1|0|0
"01813"|1|"3058"|230|"Gran Via"|11|"30430"|"Cehegín"|"MURCIA"|38.089728|-1.79573|1|0|0|0|1|1|1|0|0
"01814"|1|"3058"|163|"C/Madrid,esq.C/Hermanos Lirola"|0|"04700"|"El Ejido"|"ALMERÍA"|36.772222|-2.811913|1|0|1|1|1|1|1|0|0
"01815"|1|"3058"|299|"C/ Moncayo"|0|"30009"|"Murcia"|"MURCIA"|37.993992|-1.1395923|0|0|0|0|0|1|1|0|0
"01816"|1|"3058"|7015|"C/ Cesáreo Marco Yagüe"|4|"46300"|"Utiel"|"VALENCIA"|39.568014|-1.20417|1|0|1|1|1|1|1|0|0
"01817"|1|"3058"|36|"Pl. Castillo"|16|"04140"|"Carboneras"|"ALMERÍA"|36.997009|-1.894391|1|0|0|0|0|1|1|0|0
"01818"|1|"3058"|259|"C/ Pedro Zapatero"|1|"30440"|"Moratalla"|"MURCIA"|38.187928|-1.889762|1|0|0|1|1|1|1|0|0
"01819"|1|"3058"|81|"Pl. Altamira"|1|"04005"|"Almería"|"ALMERÍA"|36.841979|-2.456091|1|0|1|1|1|1|1|0|0
"01820"|1|"3058"|7422|"Paseo Buenavista"|13|"12100"|"Castellón de la Plana"|"CASTELLÓN"|39.972676|-0.014078|1|0|1|1|1|1|1|0|0
"01821"|1|"3058"|132|"C/ Valencia"|113|"04710"|"Santa María del Águila"|"ALMERÍA"|36.785286|-2.775499|1|0|1|1|1|1|1|0|0
"01822"|1|"3058"|257|"Av. de Madrid"|76|"30500"|"Molina de Segura"|"MURCIA"|38.059202|-1.217137|1|0|1|1|1|1|1|0|0
"01823"|1|"3058"|2225|"C/ Velázquez"|24|"46018"|"Valencia"|"VALENCIA"|39.471558|-0.401559|1|0|1|1|1|1|1|0|0
"01824"|1|"3058"|5066|"Plaz. España"|19|"47491"|"La Seca"|"VALLADOLID"|41.4145616|-4.9067195|1|1|0|1|1|1|1|0|0
"01826"|1|"3058"|83|"Av. del Puerto"|7|"04740"|"Roquetas de Mar"|"ALMERÍA"|36.757328|-2.6085515|1|0|1|1|1|1|1|0|0
"01827"|1|"3123"|7271|"Pl. Constitución"|2|"46389"|"Turís"|"VALENCIA"|39.3895683|-0.7108829|1|0|1|1|1|1|1|0|0
"01828"|1|"3058"|13|"Av. José Barrionuevo Peña"|17|"04760"|"Berja"|"ALMERÍA"|36.841705|-2.94543|1|0|0|1|1|1|1|0|0
"01829"|1|"3058"|3|"Martinez Fresneda"|9|"04540"|"Nacimiento"|"ALMERÍA"|37.1061629|-2.6488457|1|0|0|0|0|1|1|0|0
"01830"|1|"3058"|2135|"C/ Llironer"|15|"46133"|"Meliana"|"VALENCIA"|39.527514|-0.350307|1|0|1|1|1|1|1|0|0
"01831"|1|"3058"|2509|"Av. Libertad"|49|"03690"|"Sant Vicent del Raspeig"|"ALICANTE"|38.397977|-0.521333|1|0|1|1|1|1|1|0|0
"01832"|1|"3058"|3409|"La Corredera"|54|"14550"|"Montilla"|"CÓRDOBA"|37.5877191|-4.6391178|1|0|1|1|1|1|1|0|0
"01833"|1|"3058"|52|"Ctra. Níjar"|93|"04130"|"El Alquián"|"ALMERÍA"|36.840958|-2.411005|1|0|0|0|1|1|1|0|0
"01834"|1|"3045"|2650|"Avda. Jaume I"|6|"03590"|"Altea"|"ALICANTE"|38.600711|-0.0481773|1|0|1|1|1|1|1|0|0
"01835"|1|"3058"|7025|"C/ 25 de abril"|20|"46113"|"Moncada"|"VALENCIA"|39.54486|-0.39634|1|0|0|0|1|1|1|0|0
"01836"|1|"3058"|736|"Av. Andalucía"|119|"29740"|"Torre del Mar"|"MÁLAGA"|36.740363|-4.096334|1|0|0|1|1|1|1|0|0
"01837"|1|"3058"|199|"C/Estancias"|0|"04820"|"Velez Rubio"|"ALMERÍA"|37.6483357|-2.0762528|1|0|0|0|1|1|1|0|0
"01838"|1|"3058"|736|"Av. Andalucía"|119|"29740"|"Torre del Mar"|"MÁLAGA"|36.740363|-4.096334|1|0|1|1|1|1|1|0|0
"01839"|1|"3058"|127|"Paseo de Almería"|25|"04001"|"Almería"|"ALMERÍA"|36.83947|-2.463387|1|0|1|1|1|1|1|0|0
"01840"|1|"3058"|728|"C/ Granada"|89|"29780"|"Nerja"|"MÁLAGA"|36.74792|-3.879086|1|0|1|1|1|1|1|0|0
"01841"|1|"3058"|3702|"Avda. De Aragón"|21|"22520"|"Fraga"|"HUESCA"|41.521665|0.341477|1|0|1|1|1|1|1|0|0
"01842"|1|"3058"|1008|"Plaza España"|0|"04857"|"Albanchez"|"ALMERÍA"|37.2870765|-2.1813888|1|0|1|1|1|1|1|0|0
"01843"|1|"3058"|2087|"C/ El Regajo"|0|"46624"|"Jalance"|"VALENCIA"|39.1897045|-1.0751507|1|0|1|1|1|1|1|0|0
"01844"|1|"3058"|2693|"C/ Alcoy"|0|"03850"|"Beniarres"|"ALICANTE"|38.8193679|-0.3786078|1|0|1|1|1|1|1|0|0
"01845"|1|"3058"|38|"Ctra. Alicún"|379|"04740"|"El Parador"|"ALMERÍA"|36.807627|-2.598073|1|0|1|1|1|1|1|0|0
"01847"|1|"3112"|7470|"Pl. Les Monges"|2|"12530"|"Burriana"|"CASTELLÓN"|39.887927|-0.088339|1|0|0|1|1|1|1|0|0
"01848"|1|"3058"|7416|"C/ Santo Tomás"|63|"12560"|"Benicássim"|"CASTELLÓN"|40.055085|0.063557|1|0|0|1|1|1|1|0|0
"01849"|1|"3058"|7416|"C/ Santo Tomás"|63|"12560"|"Benicássim"|"CASTELLÓN"|40.055085|0.063557|1|0|1|1|1|1|1|0|0
"01850"|1|"3029"|7241|"C/ Gabriel Payá"|18|"03610"|"Petrer"|"ALICANTE"|38.484312|-0.772124|1|0|1|0|1|1|1|0|0
"01851"|1|"3029"|7242|"Av. de Elda"|14|"03610"|"Petrer"|"ALICANTE"|38.481894|-0.786096|1|0|0|0|1|1|1|0|0
"01853"|1|"3029"|7269|"C/ Pintor Vicente Poveda"|10|"03610"|"Petrer"|"ALICANTE"|38.482171|-0.773732|1|0|1|0|0|1|1|0|0
"01856"|1|"3029"|7248|"C/ Padre Manjón"|3|"03600"|"Elda"|"ALICANTE"|38.4750967|-0.7956091|1|0|0|0|0|1|1|0|0
"01857"|1|"3029"|7249|"Av. Jose Martinez Gonzalez"|47|"03600"|"Elda"|"ALICANTE"|38.474836|-0.78879|1|0|1|1|1|1|1|0|0
"01858"|1|"3029"|7250|"C/ Jaime I"|9|"03610"|"Petrer"|"ALICANTE"|38.482097|-0.779975|1|0|0|0|1|1|1|0|0
"01860"|1|"3029"|7248|"Padre Manjón"|3|"03600"|"Elda"|"ALICANTE"|38.475096|-0.795609|1|0|1|0|1|1|1|0|0
"01861"|1|"3058"|3507|"C/ San Jose"|73|"41300"|"San Jose de la Rinconada"|"SEVILLA"|37.481853|-5.943872|1|0|0|0|1|1|1|0|0
"01862"|1|"3058"|7416|"C/ Santo Tomás"|63|"12560"|"Benicássim"|"CASTELLÓN"|40.055085|0.063557|1|0|1|1|1|1|1|0|0
"01863"|1|"3058"|7004|"Pl. Mayor"|29|"46620"|"Ayora"|"VALENCIA"|39.059804|-1.055177|1|0|1|1|1|1|1|0|0
"01864"|1|"3058"|5056|"C/ Simón Ruiz"|3|"47400"|"Medina del Campo"|"VALLADOLID"|41.307923|-4.914708|1|0|1|1|1|1|1|0|0
"01865"|1|"3058"|256|"C/ Paseo"|7|"30530"|"Cieza"|"MURCIA"|38.238433|-1.420691|1|0|1|1|1|1|1|0|0
"01866"|1|"3058"|246|"C/ Menéndez Pelayo,esq.C/Juan Cierva"|0|"30565"|"Las Torres de Cotillas"|"MURCIA"|38.024599|-1.244486|1|0|1|1|1|1|1|0|0
"01867"|1|"3058"|2239|"C/ Marqués del Turia"|86|"46910"|"Benetusser"|"VALENCIA"|39.418714|-0.398915|1|0|1|1|1|1|1|0|0
"01868"|1|"3058"|253|"C/ Marquesa Villa San Román"|7|"30600"|"Archena"|"MURCIA"|38.117507|-1.301505|1|1|0|1|1|1|1|0|0
"01869"|1|"3058"|2221|"Av. Daniel Gil"|26|"46870"|"Ontinyent"|"VALENCIA"|38.824358|-0.602283|1|0|1|1|1|1|1|0|0
"01872"|1|"3058"|316|"C/ Mayor"|20|"30820"|"Alcantarilla"|"MURCIA"|37.9727573|-1.2084574|1|0|1|1|1|1|1|0|0
"01874"|1|"3058"|264|"Pl. de las Flores,esq.C/Ruip"|0|"30002"|"Murcia"|"MURCIA"|37.984918|-1.133388|1|0|1|1|1|1|1|0|0
"01876"|1|"3058"|7414|"Av. Hermanos Bou"|16|"12003"|"Castellón de la Plana"|"CASTELLÓN"|39.983306|-0.03253|1|0|1|1|1|1|1|0|0
"01878"|1|"3058"|239|"Av. Párroco Antonio López Martínez"|6|"30730"|"San Javier"|"MURCIA"|37.806563|-0.835379|1|0|1|1|1|1|1|0|0
"01879"|1|"3058"|239|"Av. Párroco Antonio López Martínez"|6|"30730"|"San Javier"|"MURCIA"|37.806563|-0.835379|1|0|1|1|1|1|1|0|0
"01882"|1|"3058"|254|"C/ Mayor"|65|"30360"|"La Unión"|"MURCIA"|37.61735|-0.87734|1|0|1|1|1|1|1|0|0
"01884"|1|"3058"|856|"Centro Internacional"|84|"29770"|"Torrox Costa"|"MÁLAGA"|36.728755|-3.961333|1|0|1|1|1|1|1|0|0
"01885"|1|"3058"|103|"Ctra. Granada"|281|"04009"|"Almería"|"ALMERÍA"|36.850346|-2.4544615|1|0|1|1|1|1|1|0|0
"01886"|1|"3058"|2226|"C/ San Antonio"|38|"46260"|"Alberic"|"VALENCIA"|39.116611|-0.52064|1|1|0|1|1|1|1|0|0
"01888"|1|"3058"|387|"Ctra. Granada"|61|"30800"|"Lorca"|"MURCIA"|37.662388|-1.705668|1|0|1|1|1|1|1|0|0
"01889"|1|"3058"|354|"C/ Mayor"|65|"30006"|"Puente Tocinos"|"MURCIA"|37.992867|-1.103961|1|0|0|1|1|1|1|0|0
"01890"|1|"3058"|824|"Pl. Cruz de Humilladero"|6|"29006"|"Málaga"|"MÁLAGA"|36.711945|-4.4414176|1|0|1|1|1|1|1|0|0
"01891"|1|"3058"|199|"Pl. Quemadero"|0|"04008"|"Almería"|"ALMERÍA"|36.8463729|-2.4668614|1|0|1|1|1|1|1|0|0
"01895"|1|"3058"|259|"C/ Pedro Zapatero"|1|"30440"|"Moratalla"|"MURCIA"|38.1877149|-1.8898037|1|0|1|1|1|1|1|0|0
"01896"|1|"3058"|114|"Av. de la Estación"|12|"04006"|"Almería"|"ALMERÍA"|36.835025|-2.4559983|1|0|1|1|1|1|1|0|0
"01897"|1|"3058"|262|"Pl. Juan XXIII,esq.C/Juan de la Cierva"|0|"30850"|"Totana"|"MURCIA"|37.771037|-1.4989578|1|0|1|1|1|1|1|0|0
"01901"|1|"3123"|7271|"Pl. Constitución"|2|"46389"|"Turís"|"VALENCIA"|39.389563|-0.710891|1|0|0|0|0|1|1|0|0
"01902"|1|"3123"|7279|"Av. Blasco Ibáñez"|42|"46389"|"Turís"|"VALENCIA"|39.390352|-0.716363|1|0|0|0|0|1|1|0|0
"01903"|1|"3058"|145|"Ctra. de Torrecárdenas"|50|"04230"|"Huércal de Almería"|"ALMERÍA"|36.870137|-2.439523|1|0|1|1|1|1|1|0|0
"01904"|1|"3058"|255|"C/ Mayor"|176|"30360"|"Alcantarilla"|"MURCIA"|37.967666|-1.217426|1|0|1|1|1|1|1|0|0
"01905"|1|"3058"|215|"Ctra. Lorca"|1|"30880"|"Águilas"|"MURCIA"|37.408737|-1.586867|1|0|1|1|1|1|1|0|0
"01906"|1|"3058"|280|"C/ Carmen Conde"|43|"30204"|"Cartagena"|"MURCIA"|37.614996|-0.991119|0|0|0|0|1|1|1|0|0
"01907"|1|"3152"|2371|"C/ Las Cruces"|33|"46170"|"Villar del Arzobispo"|"VALENCIA"|39.733698|-0.826614|1|0|1|1|1|1|1|0|0
"01908"|1|"3029"|7250|"C/ Jaime I"|9|"03610"|"Petrer"|"ALICANTE"|38.482097|-0.779975|1|0|1|1|1|1|1|0|0
"01909"|1|"3029"|7249|"Av. Jose Martinez Gonzalez"|47|"03600"|"Elda"|"ALICANTE"|38.474836|-0.78879|1|0|1|1|1|1|1|0|0
"01910"|1|"3058"|7421|"C/ Unión"|2|"12004"|"Castellón de la Plana"|"CASTELLÓN"|39.989134|-0.047399|1|0|1|1|1|1|1|0|0
"01911"|1|"3058"|961|"C/ Alcalde Sánchez Prados"|4|"51001"|"Ceuta"|"CEUTA"|35.888207|-5.316017|1|0|1|1|1|1|1|0|0
"01912"|1|"3058"|205|"C/ General Aznar"|4|"30850"|"Totana"|"MURCIA"|37.769422|-1.502304|1|0|1|1|1|1|1|0|0
"01913"|1|"3058"|3509|"San Pedro"|16|"41410"|"Carmona"|"SEVILLA"|37.4711569|-5.6418819|1|0|1|1|1|1|1|0|0
"01914"|1|"3058"|208|"Pl. La Iglesia"|4|"30390"|"La Aljorra"|"MURCIA"|37.690782|-1.071017|1|0|1|1|1|1|1|0|0
"01915"|1|"3058"|713|"Av. Andalucía (Ed. Río de Janeiro)"|0|"29750"|"Algarrobo Costa"|"MÁLAGA"|36.747256|-4.053958|1|0|1|1|1|1|1|0|0
"01918"|1|"3058"|814|"C/ José Antonio"|11|"11201"|"Algeciras"|"CÁDIZ"|36.130197|-5.446394|1|0|1|1|1|1|1|0|0
"01924"|1|"3058"|437|"Plaza Julian Romea"|NA|"30001"|"Murcia"|"MURCIA"|37.98684|-1.1311|1|0|1|1|1|1|1|0|0
"01925"|1|"3058"|2340|"C/ Santa Bárbara"|15|"46450"|"Benifaió"|"VALENCIA"|39.284273|-0.425949|1|0|0|0|1|1|1|0|0
"01928"|1|"3045"|2659|"C/ Cervantes"|5|"03570"|"Villajoyosa"|"ALICANTE"|38.506389|-0.232222|1|0|1|1|1|1|1|0|0
"01934"|1|"3058"|22|"Av. La Paz"|19|"04661"|"La Alfoquia"|"ALMERÍA"|37.35271|-2.04011|1|0|0|0|1|1|1|0|0
"01935"|1|"3157"|7486|"Pl. España"|8|"12592"|"Chilches"|"CASTELLÓN"|39.78189|-0.187734|1|0|1|1|1|1|1|0|0
"01936"|1|"3058"|238|"C/ Mayor"|65|"30833"|"Sangonera La Verde"|"MURCIA"|37.932419|-1.208917|1|0|0|1|1|1|1|0|0
"01937"|1|"3058"|2122|"C/ Mayor"|1|"46700"|"Gandía"|"VALENCIA"|38.968618|-0.181103|1|1|0|1|1|1|1|0|0
"01938"|1|"3058"|793|"C/ Marqués del Duero,esq.C/Pozo"|0|"29670"|"San Pedro Alcántara"|"MÁLAGA"|36.484788|-4.989338|1|0|1|1|1|1|1|0|0
"01939"|1|"3058"|5001|"C/ Miguel Íscar"|1|"47001"|"Valladolid"|"VALLADOLID"|41.64828|-4.729035|1|0|1|1|1|1|1|0|0
"01940"|1|"3058"|5001|"C/ Miguel Íscar"|1|"47001"|"Valladolid"|"VALLADOLID"|41.64828|-4.729035|1|0|0|1|1|1|1|0|0
"01941"|1|"3058"|821|"Av. Tívoli"|0|"29630"|"Arroyo de la Miel"|"MÁLAGA"|36.59896|-4.54034|1|0|1|1|1|1|1|0|0
"01942"|1|"3058"|2547|"C/ Mayor"|18|"03190"|"Pilar de la Horadada"|"ALICANTE"|37.865153|-0.792466|1|0|1|1|1|1|1|0|0
"01943"|1|"3058"|717|"C/ Manuel García González"|14|"29100"|"Coín"|"MÁLAGA"|36.660484|-4.756764|1|0|1|1|1|1|1|0|0
"01944"|1|"3105"|2636|"Av. Jaume I"|1|"03510"|"Callosa d´en Sarria"|"ALICANTE"|38.650765|-0.120794|1|0|1|1|1|1|1|0|0
"01947"|1|"3058"|248|"Av. Gutiérrez Mellado"|10|"30500"|"Molina de Segura"|"MURCIA"|38.05735|-1.210009|1|0|0|1|1|1|1|0|0
"01948"|1|"3058"|248|"Av. Gutiérrez Mellado"|10|"30500"|"Molina de Segura"|"MURCIA"|38.05735|-1.210009|1|0|1|1|1|1|1|0|0
"01949"|1|"3058"|324|"Paseo de Florencia"|24|"30012"|"Murcia"|"MURCIA"|37.96952|-1.128249|1|0|1|1|1|1|1|0|0
"01950"|1|"3058"|2276|"Pl. de L´Ajuntament"|14|"46220"|"Picassent"|"VALENCIA"|39.362943|-0.457617|1|0|1|1|1|1|1|0|0
"01951"|1|"3058"|324|"Paseo de Florencia"|24|"30012"|"Murcia"|"MURCIA"|37.96952|-1.128249|1|0|1|1|1|1|1|0|0
"01953"|1|"3058"|287|"Av. Juan Carlos I"|1|"30566"|"Las Torres de Cotillas"|"MURCIA"|38.022047|-1.237314|1|0|1|1|1|1|1|0|0
"01955"|1|"3058"|6115|"C/ Triana"|89|"35002"|"Las Palmas de Gran Canaria"|"LAS PALMAS"|28.0997|-15.4134|0|0|1|1|1|1|1|0|0
"01956"|1|"3058"|6115|"C/ Triana"|89|"35002"|"Las Palmas de Gran Canaria"|"LAS PALMAS"|28.0997|-15.4134|0|1|0|1|1|1|1|0|0
"01958"|1|"3058"|6115|"C/ Triana"|89|"35002"|"Las Palmas de Gran Canaria"|"LAS PALMAS"|28.0997|-15.4134|0|0|1|1|1|1|1|0|0
"01960"|1|"3058"|787|"Guillermo Pérez"|8|"29718"|"El Borge"|"MÁLAGA"|36.8151888|-4.2353036|1|0|1|1|1|1|1|0|0
"01961"|1|"3058"|4204|"Paseo del Muro"|35|"50600"|"Ejea de los Caballeros"|"ZARAGOZA"|42.1267551|-1.1372635|1|0|1|1|1|1|1|0|0
"01963"|1|"3058"|899|"Camino de Ronda"|14|"29350"|"Ronda"|"MÁLAGA"|36.64647|-5.04272|1|0|0|0|1|1|1|0|0
"01964"|1|"3058"|2246|"C/ José Grollo"|66|"46025"|"Valencia"|"VALENCIA"|39.493415|-0.39244|1|0|1|1|1|1|1|0|0
"01965"|1|"3105"|2636|"Av. Jaume I"|1|"03510"|"Callosa d´en Sarria"|"ALICANTE"|38.650765|-0.120794|1|0|1|1|1|1|1|0|0
"01966"|1|"3058"|61|"Ctra. de Nijar"|205|"04120"|"La Cañada"|"ALMERÍA"|36.840383|-2.407135|1|0|1|1|1|1|1|0|0
"02501"|1|"3058"|4502|"C/ Creu"|19|"07630"|"Campos"|"BALEARES"|39.432961|3.01871|1|1|0|0|1|1|1|0|0
"02502"|1|"3058"|4503|"C/ Gran"|105|"07420"|"Sa Pobla"|"BALEARES"|39.768494|3.024255|1|1|0|1|1|1|1|0|0
"02503"|1|"3058"|4504|"Pl. de la Vila"|10|"07260"|"Porreres"|"BALEARES"|39.51673|3.022699|1|1|0|1|1|1|1|0|0
"02504"|1|"3058"|4505|"Rb. Rei en Jaume"|1|"07500"|"Manacor"|"BALEARES"|39.5645296|3.2174922|1|0|1|1|1|1|1|0|0
"02507"|1|"3058"|4509|"C/ Ernest Mestre"|22|"07200"|"Felanitx"|"BALEARES"|39.468759|3.144864|1|1|0|0|0|1|1|0|0
"02508"|1|"3058"|4510|"Pl. Barcelona"|1|"07011"|"Palma"|"BALEARES"|39.5791382|2.63636099999996|1|1|0|0|0|1|1|0|0
"02509"|1|"3058"|4513|"Pl. Espanya"|14|"07620"|"Llucmajor"|"BALEARES"|39.490794|2.891703|1|1|0|0|0|1|1|0|0
"02510"|1|"3058"|4514|"Av. del Cid"|64|"07198"|"Son Ferriol"|"BALEARES"|39.576384|2.7168|1|0|1|1|1|1|1|0|0
"02512"|1|"3058"|4516|"Pl. Constitución"|13|"07650"|"Santanyí"|"BALEARES"|39.355232|3.12919|1|1|0|0|1|1|1|0|0
"02513"|1|"3058"|4517|"C/ Aragó"|166|"07005"|"Palma"|"BALEARES"|39.582618|2.668973|1|1|0|1|1|1|1|0|0
"02517"|1|"3058"|4521|"C/ General Riera"|66|"07010"|"Palma"|"BALEARES"|39.584623|2.6463|1|1|0|1|1|1|1|0|0
"02518"|1|"3058"|4522|"Pl. del Ángel"|1|"07300"|"Inca"|"BALEARES"|39.719823|2.910098|1|1|0|1|1|1|1|0|0
"02520"|1|"3058"|4524|"C/ Cabana"|32|"07141"|"Pont D´Inca"|"BALEARES"|39.600274|2.69026|1|0|1|1|1|1|1|0|0
"02521"|1|"3058"|4525|"Av. Joan Carles I"|68|"07150"|"Andratx"|"BALEARES"|39.573287|2.421179|1|1|0|0|1|1|1|0|0
"02523"|1|"3058"|4550|"C/ Isidoro Macabich"|45|"07800"|"Eivissa"|"BALEARES"|38.909817|1.425771|1|0|0|0|0|1|1|0|0
"02524"|1|"3058"|699|"Carretera es Canar"|4|"07840"|"Santa Eulalia"|"BALEARES"|38.988027|1.539985|1|0|0|0|0|1|1|0|0
"02525"|1|"3058"|4561|"Av. Capitá Negrete"|18|"07760"|"Ciutadella"|"BALEARES"|39.999222|3.838458|1|0|1|1|1|1|1|0|0
"02526"|1|"3058"|4562|"Av. Fort de L Eau"|86|"07701"|"Maó"|"BALEARES"|39.884854|4.272051|1|1|0|1|1|1|1|0|0
"02528"|1|"3058"|4530|"C/ Anselmo Clavé"|7|"07002"|"Palma"|"BALEARES"|39.57327|2.6551|1|1|0|0|1|1|1|0|0
"02529"|1|"3058"|4532|"C/ Gran Vía Asima"|6|"07009"|"Palma"|"BALEARES"|39.603371|-2.672221|1|1|0|1|1|1|1|0|0
"03053"|1|"3058"|273|"Av. Juan Carlos I, esq.Pl. del Charco"|0|"30151"|"Santo Ángel"|"MURCIA"|37.942624|-1.131724|0|0|0|0|0|1|1|0|0
"03078"|1|"3058"|364|"Av. Venecia"|18|"30310"|"Santa Ana"|"MURCIA"|37.6524287|-1.0109547|1|0|1|1|1|1|1|0|0
"03093"|1|"3058"|546|"C/ Jaume I"|1|"08206"|"Sabadell"|"BARCELONA"|41.5580646|2.09621613|1|0|1|1|1|1|1|0|0
"03099"|1|"3058"|334|"C/ Baleares"|1|"30500"|"Molina de Segura"|"MURCIA"|38.055098|-1.203373|1|0|1|1|1|1|1|0|0
"03103"|1|"3058"|5|"Ctra. Málaga"|17|"04713"|"Balanegra"|"ALMERÍA"|36.750017|-2.907139|1|0|1|1|1|1|1|0|0
"03104"|1|"3058"|64|"Av. de las Marinas"|140|"04740"|"Las Marinas"|"ALMERÍA"|36.732277|-2.627662|1|0|1|1|1|1|1|0|0
"03105"|1|"3058"|34|"Paseo de la Rambla"|17|"04639"|"Turre"|"ALMERÍA"|37.152225|-1.89332|1|0|0|0|0|1|1|0|0
"03115"|1|"3058"|181|"C/ Correo"|0|"04118"|"San José"|"ALMERÍA"|36.763058|-2.1095252|1|0|1|1|1|1|1|0|0
"03117"|1|"3058"|96|"Pl. Colonización"|21|"04716"|"San Agustín"|"ALMERÍA"|36.713143|-2.694652|0|0|0|0|0|1|1|0|0
"03118"|1|"3058"|556|"Av. Capitá Francesc Batllevell"|6|"08760"|"Martorell"|"BARCELONA"|41.4741475|1.91839791|0|0|0|0|0|1|1|0|0
"03119"|1|"3058"|555|"C/ San Antonio"|19|"08290"|"Cerdanyola del Vallés"|"BARCELONA"|41.49255204|2.13653066|0|0|0|0|0|1|1|0|0
"03120"|1|"3058"|299|"Ctra. Fuensanta"|117|"30012"|"Murcia"|"MURCIA"|37.96406|-1.1280208|1|0|0|1|1|1|1|0|0
"03121"|1|"3058"|253|"C/ Marquesa Villa San Román"|7|"30600"|"Archena"|"MURCIA"|38.1175077|-1.3015058|1|0|1|1|1|1|1|0|0
"03122"|1|"3058"|309|"C/ Del Pino"|0|"30007"|"Casillas"|"MURCIA"|38.008996|-1.091401|0|0|0|0|0|1|1|0|0
"03152"|1|"3058"|299|"Autovía de La Manga, Salida 15"|0|"30370"|"El Algar"|"MURCIA"|37.633613|-0.806874|1|0|0|0|0|1|1|0|0
"03170"|1|"3058"|89|"Av. Boulevard Ciudad de Vícar"|630|"04738"|"La Gangosa"|"ALMERÍA"|36.805368|-2.620196|1|0|1|1|1|1|1|0|0
"03171"|1|"3058"|82|"Ctra. La Mojonera"|553|"04740"|"Cortijos de Marín"|"ALMERÍA"|36.75782|-2.65207|1|0|1|1|1|1|1|0|0
"03181"|1|"3058"|387|"Ctra. Granada"|61|"30800"|"Lorca"|"MURCIA"|37.662388|-1.705668|1|0|1|1|1|1|1|0|0
"03193"|1|"3058"|23|"Av. Barcelona"|14|"04610"|"Cuevas de Almanzora"|"ALMERÍA"|37.294723|-1.8772739|1|0|1|1|1|1|1|0|0
"03212"|1|"3058"|133|"Ctra. de Almería"|27|"04770"|"La Curva"|"ALMERÍA"|36.758742|-2.978711|1|0|0|0|1|1|1|0|0
"03220"|1|"3058"|706|"Pl. María Auxiliadora"|6|"29330"|"Almargen"|"MÁLAGA"|37.002647|-5.021471|1|0|1|1|1|1|1|0|0
"03221"|1|"3058"|709|"C/ Infante Don Fernando"|43|"29200"|"Antequera"|"MÁLAGA"|37.018933|-4.562523|1|0|1|1|1|1|1|0|0
"03222"|1|"3058"|710|"C/ Empedrada"|0|"29300"|"Archidona"|"MÁLAGA"|37.09534|-4.389102|1|0|1|1|1|1|1|0|0
"03223"|1|"3058"|712|"C/ Real"|3|"29320"|"Campillos"|"MÁLAGA"|37.047576|-4.861919|1|0|1|1|1|1|1|0|0
"03224"|1|"3058"|713|"Av. Andalucía (Ed. Río de Janeiro)"|0|"29750"|"Algarrobo Costa"|"MÁLAGA"|36.747256|-4.053958|0|0|0|0|0|1|1|0|0
"03225"|1|"3058"|714|"Av. Andalucía"|26|"29580"|"Estación de Cártama"|"MÁLAGA"|36.736568|-4.609599|1|0|1|1|1|1|1|0|0
"03226"|1|"3058"|715|"Paseo Puerto de la Horca"|11|"29160"|"Casabermeja"|"MÁLAGA"|36.894929|-4.431524|1|0|1|1|1|1|1|0|0
"03227"|1|"3058"|716|"Av. Juan XXIII"|1|"29566"|"Casarabonela"|"MÁLAGA"|36.785693|-4.843179|1|0|1|1|1|1|1|0|0
"03229"|1|"3058"|718|"Pl. Los Carros"|1|"29170"|"Colmenar"|"MÁLAGA"|36.994344|-4.259316|0|0|0|0|0|1|1|0|0
"03230"|1|"3058"|719|"Av. Constitución"|35|"29574"|"Cómpeta"|"MÁLAGA"|36.83292|-3.975849|1|0|1|1|1|1|1|0|0
"03231"|1|"3058"|721|"C/ Gabriel Miró"|1|"29140"|"Málaga"|"MÁLAGA"|36.669693|-4.503391|1|0|1|1|1|1|1|0|0
"03232"|1|"3058"|722|"Pl. de Abajo"|12|"29420"|"El Burgo"|"MÁLAGA"|36.790144|-4.948418|1|0|1|1|1|1|1|0|0
"03234"|1|"3058"|724|"C/ San Sebastián"|43|"29788"|"Frigiliana"|"MÁLAGA"|36.7914476|-3.8944447|1|0|1|1|1|1|1|0|0
"03235"|1|"3058"|726|"Av. Trapiche"|0|"29600"|"Marbella"|"MÁLAGA"|36.516233|-4.887661|1|0|1|1|1|1|1|0|0
"03236"|1|"3058"|797|"C/ Serenata"|1|"29600"|"Marbella"|"MÁLAGA"|36.5127432|-4.879809|1|0|1|1|1|1|1|0|0
"03237"|1|"3058"|727|"C/ De la Villa"|9|"29532"|"Mollina"|"MÁLAGA"|37.125632|-4.6573955|1|0|1|1|1|1|1|0|0
"03238"|1|"3058"|728|"C/ Granada"|89|"29780"|"Nerja"|"MÁLAGA"|36.74792|-3.879086|1|0|0|1|1|1|1|0|0
"03239"|1|"3058"|730|"C/ Málaga"|3|"29560"|"Pizarra"|"MÁLAGA"|36.766958|-4.707242|1|0|1|1|1|1|1|0|0
"03240"|1|"3058"|731|"Av. Mediterráneo"|72|"29730"|"Rincón de la Victoria"|"MÁLAGA"|36.715409|-4.287983|1|0|1|1|1|1|1|0|0
